{
"type": "FeatureCollection",
"name": "12-06-44-troops",
"crs": { "type": "name", "properties": { "name": "urn:ogc:def:crs:OGC:1.3:CRS84" } },
"features": [
{ "type": "Feature", "properties": { "id": 22, "name": "82nd Airborne Division", "country": "US", "front": 0 }, "geometry": { "type": "Point", "coordinates": [ -1.319396894845138, 49.438260821254673 ] } },
{ "type": "Feature", "properties": { "id": 23, "name": "90th Infantry Division", "country": "US", "front": 0 }, "geometry": { "type": "Point", "coordinates": [ -1.316986906160412, 49.43756431131856 ] } },
{ "type": "Feature", "properties": { "id": 22, "name": "82nd Airborne Division", "country": "US", "front": 1 }, "geometry": { "type": "Point", "coordinates": [ -1.351530077308147, 49.379719499777842 ] } },
{ "type": "Feature", "properties": { "id": 1, "name": "101st Airborne Division", "country": "US", "front": 0 }, "geometry": { "type": "Point", "coordinates": [ -1.261289389891194, 49.354957834929479 ] } },
{ "type": "Feature", "properties": { "id": 1, "name": "101st Airborne Division", "country": "US", "front": 1 }, "geometry": { "type": "Point", "coordinates": [ -1.23370840827711, 49.314999015719245 ] } },
{ "type": "Feature", "properties": { "id": 31, "name": "9th Infantry Division", "country": "US", "front": 1 }, "geometry": { "type": "Point", "coordinates": [ -1.272803780273773, 49.404642940302985 ] } },
{ "type": "Feature", "properties": { "id": 31, "name": "9th Infantry Division", "country": "US", "front": 0 }, "geometry": { "type": "Point", "coordinates": [ -1.26477048465802, 49.477771551860613 ] } },
{ "type": "Feature", "properties": { "id": 8, "name": "29th Infantry Division", "country": "US", "front": 1 }, "geometry": { "type": "Point", "coordinates": [ -1.010115013638665, 49.201926924435782 ] } },
{ "type": "Feature", "properties": { "id": 8, "name": "29th Infantry Division", "country": "US", "front": 0 }, "geometry": { "type": "Point", "coordinates": [ -1.02725271095227, 49.270115766187196 ] } },
{ "type": "Feature", "properties": { "id": 10, "name": "2nd Infantry Division", "country": "US", "front": 1 }, "geometry": { "type": "Point", "coordinates": [ -0.937815353096892, 49.171473838387364 ] } },
{ "type": "Feature", "properties": { "id": 10, "name": "2nd Infantry Division", "country": "US", "front": 0 }, "geometry": { "type": "Point", "coordinates": [ -0.904611064551782, 49.233235542221301 ] } },
{ "type": "Feature", "properties": { "id": 5, "name": "1st Infantry Division", "country": "US", "front": 1 }, "geometry": { "type": "Point", "coordinates": [ -0.861766821267768, 49.195977794771814 ] } },
{ "type": "Feature", "properties": { "id": 5, "name": "1st Infantry Division", "country": "US", "front": 0 }, "geometry": { "type": "Point", "coordinates": [ -0.836863604858936, 49.346759325538301 ] } },
{ "type": "Feature", "properties": { "id": 9, "name": "2nd Armored Division", "country": "US", "front": 1 }, "geometry": { "type": "Point", "coordinates": [ -0.809014846724327, 49.321282900515314 ] } },
{ "type": "Feature", "properties": { "id": 13, "name": "4th Infantry Division", "country": "US", "front": 0 }, "geometry": { "type": "Point", "coordinates": [ -1.292351466272102, 49.448533193827046 ] } },
{ "type": "Feature", "properties": { "id": 13, "name": "4th Infantry Division", "country": "US", "front": 1 }, "geometry": { "type": "Point", "coordinates": [ -1.29958143232628, 49.463328591245372 ] } },
{ "type": "Feature", "properties": { "id": 23, "name": "90th Infantry Division", "country": "US", "front": 1 }, "geometry": { "type": "Point", "coordinates": [ -1.354743395554447, 49.423457856749387 ] } },
{ "type": "Feature", "properties": { "id": 29, "name": "VII Corps", "country": "US", "front": 0 }, "geometry": { "type": "Point", "coordinates": [ -1.223532900497156, 49.401070775991883 ] } },
{ "type": "Feature", "properties": { "id": 9, "name": "2nd Armored Division", "country": "US", "front": 0 }, "geometry": { "type": "Point", "coordinates": [ -0.916661007975411, 49.382595926763557 ] } },
{ "type": "Feature", "properties": { "id": 36, "name": "First Army", "country": "US", "front": 0 }, "geometry": { "type": "Point", "coordinates": [ -0.973429630326728, 49.384687767910577 ] } },
{ "type": "Feature", "properties": { "id": 28, "name": "V Corps", "country": "US", "front": 0 }, "geometry": { "type": "Point", "coordinates": [ -0.859892385624093, 49.355917145664442 ] } },
{ "type": "Feature", "properties": { "id": 30, "name": "XXX Corps", "country": "UK", "front": 0 }, "geometry": { "type": "Point", "coordinates": [ -0.685302094241739, 49.30723032781394 ] } },
{ "type": "Feature", "properties": { "id": 14, "name": "50th Infantry Division", "country": "UK", "front": 0 }, "geometry": { "type": "Point", "coordinates": [ -0.673519927338635, 49.277802957363086 ] } },
{ "type": "Feature", "properties": { "id": 37, "name": "49th Infantry Division", "country": "UK", "front": 1 }, "geometry": { "type": "Point", "coordinates": [ -0.640717303574312, 49.243288571364012 ] } },
{ "type": "Feature", "properties": { "id": 37, "name": "49th Infantry Division", "country": "UK", "front": 0 }, "geometry": { "type": "Point", "coordinates": [ -0.687845971186727, 49.3409148731104 ] } },
{ "type": "Feature", "properties": { "id": 14, "name": "50th Infantry Division", "country": "UK", "front": 1 }, "geometry": { "type": "Point", "coordinates": [ -0.646340610505339, 49.214960015564188 ] } },
{ "type": "Feature", "properties": { "id": 21, "name": "7th Armoured Division", "country": "UK", "front": 1 }, "geometry": { "type": "Point", "coordinates": [ -0.645537280943764, 49.182939699882269 ] } },
{ "type": "Feature", "properties": { "id": 21, "name": "7th Armoured Division", "country": "UK", "front": 0 }, "geometry": { "type": "Point", "coordinates": [ -0.609655227193402, 49.199564855668321 ] } },
{ "type": "Feature", "properties": { "id": 6, "name": "21st Army Group", "country": "UK", "front": 0 }, "geometry": { "type": "Point", "coordinates": [ -0.55476104048576, 49.28103471410293 ] } },
{ "type": "Feature", "properties": { "id": 11, "name": "3rd Canadian Infantry Division", "country": "CA", "front": 0 }, "geometry": { "type": "Point", "coordinates": [ -0.488620239916064, 49.262165251722095 ] } },
{ "type": "Feature", "properties": { "id": 11, "name": "3rd Canadian Infantry Division", "country": "CA", "front": 1 }, "geometry": { "type": "Point", "coordinates": [ -0.378296313459729, 49.233148115602383 ] } },
{ "type": "Feature", "properties": { "id": 12, "name": "3rd Infantry Division", "country": "UK", "front": 1 }, "geometry": { "type": "Point", "coordinates": [ -0.458629269617254, 49.242239655247104 ] } },
{ "type": "Feature", "properties": { "id": 12, "name": "3rd Infantry Division", "country": "UK", "front": 0 }, "geometry": { "type": "Point", "coordinates": [ -0.312958842451609, 49.286973606677904 ] } },
{ "type": "Feature", "properties": { "id": 27, "name": "I Corps", "country": "UK", "front": 0 }, "geometry": { "type": "Point", "coordinates": [ -0.394898457732284, 49.284877608621002 ] } },
{ "type": "Feature", "properties": { "id": 15, "name": "51st Infantry Division", "country": "UK", "front": 1 }, "geometry": { "type": "Point", "coordinates": [ -0.318314372862111, 49.232623552639751 ] } },
{ "type": "Feature", "properties": { "id": 15, "name": "51st Infantry Division", "country": "UK", "front": 0 }, "geometry": { "type": "Point", "coordinates": [ -0.368120805679776, 49.274745695262766 ] } },
{ "type": "Feature", "properties": { "id": 17, "name": "6th Airborne Division", "country": "UK", "front": 0 }, "geometry": { "type": "Point", "coordinates": [ -0.273595693934422, 49.223880016514549 ] } },
{ "type": "Feature", "properties": { "id": 17, "name": "6th Airborne Division", "country": "UK", "front": 1 }, "geometry": { "type": "Point", "coordinates": [ -0.238516969745636, 49.200439709106782 ] } },
{ "type": "Feature", "properties": { "id": 38, "name": "Second Army", "country": "UK", "front": 0 }, "geometry": { "type": "Point", "coordinates": [ -0.556568531999304, 49.280423316908326 ] } },
{ "type": "Feature", "properties": { "id": 32, "name": "21st Panzer Division", "country": "GE", "front": 1 }, "geometry": { "type": "Point", "coordinates": [ -0.382112128877212, 49.193265454065518 ] } },
{ "type": "Feature", "properties": { "id": 97, "name": "346th Infantry Division", "country": "GE", "front": 1 }, "geometry": { "type": "Point", "coordinates": [ -0.172443113306072, 49.196240271463473 ] } },
{ "type": "Feature", "properties": { "id": 39, "name": "711th Infantry Division", "country": "GE", "front": 1 }, "geometry": { "type": "Point", "coordinates": [ -0.152895427307741, 49.226678116425262 ] } },
{ "type": "Feature", "properties": { "id": 33, "name": "716th Static Infantry Division", "country": "GE", "front": 1 }, "geometry": { "type": "Point", "coordinates": [ -0.473423922376266, 49.166133866735038 ] } },
{ "type": "Feature", "properties": { "id": 40, "name": "Panzer Lehr Division", "country": "GE", "front": 1 }, "geometry": { "type": "Point", "coordinates": [ -0.718974991697768, 49.148621723032761 ] } },
{ "type": "Feature", "properties": { "id": 41, "name": "17th Panzer Division", "country": "GE", "front": 1 }, "geometry": { "type": "Point", "coordinates": [ -1.004960315618557, 49.129000771060369 ] } },
{ "type": "Feature", "properties": { "id": 35, "name": "LXXXIV Army Corps", "country": "GE", "front": 0 }, "geometry": { "type": "Point", "coordinates": [ -1.097075438679186, 49.11673373150623 ] } },
{ "type": "Feature", "properties": { "id": 42, "name": "352nd Infantry Division", "country": "GE", "front": 0 }, "geometry": { "type": "Point", "coordinates": [ -0.919807382091581, 49.11988840292517 ] } },
{ "type": "Feature", "properties": { "id": 19, "name": "709th Static Infantry Division", "country": "GE", "front": 0 }, "geometry": { "type": "Point", "coordinates": [ -1.409035085090909, 49.504558054579945 ] } },
{ "type": "Feature", "properties": { "id": 7, "name": "243rd Static Infantry Division", "country": "GE", "front": 1 }, "geometry": { "type": "Point", "coordinates": [ -1.473033673496403, 49.461936273651489 ] } },
{ "type": "Feature", "properties": { "id": 26, "name": "91st Infantry Division", "country": "GE", "front": 1 }, "geometry": { "type": "Point", "coordinates": [ -1.503827973356787, 49.362108610285503 ] } },
{ "type": "Feature", "properties": { "id": 18, "name": "6th Parachute Regiment", "country": "GE", "front": 1 }, "geometry": { "type": "Point", "coordinates": [ -1.24006810063958, 49.265747510216663 ] } },
{ "type": "Feature", "properties": { "id": 43, "name": "4th Parachute Regiment", "country": "GE", "front": 0 }, "geometry": { "type": "Point", "coordinates": [ -1.283983450005694, 49.236557639084779 ] } },
{ "type": "Feature", "properties": { "id": 34, "name": "12th Panzer Division", "country": "GE", "front": 1 }, "geometry": { "type": "Point", "coordinates": [ -0.575714553216847, 49.147745953315358 ] } },
{ "type": "Feature", "properties": { "id": 88, "name": "30th Mobile Brigade", "country": "GE", "front": 1 }, "geometry": { "type": "Point", "coordinates": [ -0.824197284989219, 49.151572375816414 ] } }
]
}
