{"type":"FeatureCollection","features":[{"type":"Feature","geometry":{"type":"Point","coordinates":[-0.67055,49.08759]},"properties":{"date":"1944-08-29","unit_country":"GB","unit_type":"Infantry","unit_size":"Army Group","unit_name":"Twenty-First Army Group"}},{"type":"Feature","geometry":{"type":"Point","coordinates":[-0.72599,48.87249]},"properties":{"date":"1944-08-29","unit_country":"GB","unit_type":"Infantry","unit_size":"Division","unit_name":"3rd Infantry Division"}},{"type":"Feature","geometry":{"type":"Point","coordinates":[-0.63685,48.74477]},"properties":{"date":"1944-08-29","unit_country":"GB","unit_type":"Infantry","unit_size":"Corp","unit_name":"Eigth Corps"}},{"type":"Feature","geometry":{"type":"Point","coordinates":[0.44481,49.32389]},"properties":{"date":"1944-08-29","unit_country":"GB","unit_type":"Airborne","unit_size":"Division","unit_name":"6th Airborne Division"}},{"type":"Feature","geometry":{"type":"Point","coordinates":[0.39008,49.18196]},"properties":{"date":"1944-08-29","unit_country":"CAN","unit_type":"Infantry","unit_size":"Army","unit_name":"First Army"}},{"type":"Feature","geometry":{"type":"Point","coordinates":[0.45576,49.4205]},"properties":{"date":"1944-08-29","unit_country":"GB","unit_type":"Infantry","unit_size":"Division","unit_name":"49th Infantry Division"}},{"type":"Feature","geometry":{"type":"Point","coordinates":[0.77151,49.32889]},"properties":{"date":"1944-08-29","unit_country":"GB","unit_type":"Infantry","unit_size":"Division","unit_name":"51st Infantry Division"}},{"type":"Feature","geometry":{"type":"Point","coordinates":[0.47396,49.21277]},"properties":{"date":"1944-08-29","unit_country":"GB","unit_type":"Infantry","unit_size":"Corp","unit_name":"First Corps"}},{"type":"Feature","geometry":{"type":"Point","coordinates":[0.83528,49.19457]},"properties":{"date":"1944-08-29","unit_country":"CAN","unit_type":"Infantry","unit_size":"Corp","unit_name":"Second Corps"}},{"type":"Feature","geometry":{"type":"Point","coordinates":[0.11633,48.91712]},"properties":{"date":"1944-08-29","unit_country":"POL","unit_type":"Armoured","unit_size":"Division","unit_name":"1st Armoured Division"}},{"type":"Feature","geometry":{"type":"Point","coordinates":[0.59412,49.35637]},"properties":{"date":"1944-08-29","unit_country":"GB","unit_type":"Armoured","unit_size":"Division","unit_name":"7th Armoured Division"}},{"type":"Feature","geometry":{"type":"Point","coordinates":[1.10963,49.16399]},"properties":{"date":"1944-08-29","unit_country":"GB","unit_type":"Infantry","unit_size":"Division","unit_name":"7th Infantry Division"}},{"type":"Feature","geometry":{"type":"Point","coordinates":[0.64671,48.87929]},"properties":{"date":"1944-08-29","unit_country":"GB","unit_type":"Infantry","unit_size":"Division","unit_name":"53rd Infantry Division"}},{"type":"Feature","geometry":{"type":"Point","coordinates":[1.16662,49.17553]},"properties":{"date":"1944-08-29","unit_country":"GB","unit_type":"Infantry","unit_size":"Division","unit_name":"15th Infantry Division"}},{"type":"Feature","geometry":{"type":"Point","coordinates":[1.44383,49.10177]},"properties":{"date":"1944-08-29","unit_country":"GB","unit_type":"Infantry","unit_size":"Division","unit_name":"43rd Infantry Division"}},{"type":"Feature","geometry":{"type":"Point","coordinates":[1.52592,49.02134]},"properties":{"date":"1944-08-29","unit_country":"GB","unit_type":"Infantry","unit_size":"Division","unit_name":"50th Infantry Division"}},{"type":"Feature","geometry":{"type":"Point","coordinates":[-0.50305,48.84074]},"properties":{"date":"1944-08-29","unit_country":"GB","unit_type":"Armoured","unit_size":"Division","unit_name":"Guards Division"}},{"type":"Feature","geometry":{"type":"Point","coordinates":[1.54686,49.09392]},"properties":{"date":"1944-08-29","unit_country":"GB","unit_type":"Infantry","unit_size":"Corp","unit_name":"Thirty Corps"}},{"type":"Feature","geometry":{"type":"Point","coordinates":[1.91163,48.97851]},"properties":{"date":"1944-08-29","unit_country":"USA","unit_type":"Infantry","unit_size":"Corp","unit_name":"Nineteenth Corps"}},{"type":"Feature","geometry":{"type":"Point","coordinates":[2.32137,48.83146]},"properties":{"date":"1944-08-29","unit_country":"USA","unit_type":"Infantry","unit_size":"Corp","unit_name":"Fifth Corps"}},{"type":"Feature","geometry":{"type":"Point","coordinates":[1.67868,48.73367]},"properties":{"date":"1944-08-29","unit_country":"USA","unit_type":"Infantry","unit_size":"Corp","unit_name":"Fifteenth Corps"}},{"type":"Feature","geometry":{"type":"Point","coordinates":[2.72326,48.5859]},"properties":{"date":"1944-08-29","unit_country":"USA","unit_type":"Infantry","unit_size":"Corp","unit_name":"Eighth Corps"}},{"type":"Feature","geometry":{"type":"Point","coordinates":[3.6691,48.3106]},"properties":{"date":"1944-08-29","unit_country":"USA","unit_type":"Infantry","unit_size":"Corp","unit_name":"Twelfth Corps"}},{"type":"Feature","geometry":{"type":"Point","coordinates":[2.23333,48.02816]},"properties":{"date":"1944-08-29","unit_country":"USA","unit_type":"Infantry","unit_size":"Army","unit_name":"Third Army"}},{"type":"Feature","geometry":{"type":"Point","coordinates":[1.1602,48.62707]},"properties":{"date":"1944-08-29","unit_country":"USA","unit_type":"Infantry","unit_size":"Army","unit_name":"First Army"}},{"type":"Feature","geometry":{"type":"Point","coordinates":[0.28693,48.80434]},"properties":{"date":"1944-08-29","unit_country":"GB","unit_type":"Infantry","unit_size":"Army","unit_name":"Second Army"}},{"type":"Feature","geometry":{"type":"Point","coordinates":[1.6951,49.03681]},"properties":{"date":"1944-08-29","unit_country":"USA","unit_type":"Infantry","unit_size":"Division","unit_name":"79th Infantry Division"}},{"type":"Feature","geometry":{"type":"Point","coordinates":[1.80449,49.03556]},"properties":{"date":"1944-08-29","unit_country":"USA","unit_type":"Infantry","unit_size":"Division","unit_name":"30th Infantry Division"}},{"type":"Feature","geometry":{"type":"Point","coordinates":[2.28158,48.91207]},"properties":{"date":"1944-08-29","unit_country":"FRE","unit_type":"Armoured","unit_size":"Division","unit_name":"2nd Armoured Division"}},{"type":"Feature","geometry":{"type":"Point","coordinates":[2.04553,48.80261]},"properties":{"date":"1944-08-29","unit_country":"USA","unit_type":"Infantry","unit_size":"Division","unit_name":"28th Infantry Division"}},{"type":"Feature","geometry":{"type":"Point","coordinates":[2.52357,48.87471]},"properties":{"date":"1944-08-29","unit_country":"USA","unit_type":"Infantry","unit_size":"Division","unit_name":"4th Infantry Division"}},{"type":"Feature","geometry":{"type":"Point","coordinates":[3.05323,49.12122]},"properties":{"date":"1944-08-29","unit_country":"USA","unit_type":"Infantry","unit_size":"Division","unit_name":"1st Infantry Division"}},{"type":"Feature","geometry":{"type":"Point","coordinates":[3.03277,48.89327]},"properties":{"date":"1944-08-29","unit_country":"USA","unit_type":"Infantry","unit_size":"Division","unit_name":"9th Infantry Division"}},{"type":"Feature","geometry":{"type":"Point","coordinates":[3.36138,49.30373]},"properties":{"date":"1944-08-29","unit_country":"USA","unit_type":"Armoured","unit_size":"Division","unit_name":"3rd Armoured Division"}},{"type":"Feature","geometry":{"type":"Point","coordinates":[3.18625,48.04666]},"properties":{"date":"1944-08-29","unit_country":"USA","unit_type":"Infantry","unit_size":"Division","unit_name":"35th Infantry Division"}},{"type":"Feature","geometry":{"type":"Point","coordinates":[0.52488,49.50354]},"properties":{"date":"1944-08-29","unit_country":"GMN","unit_type":"Infantry","unit_size":"Division","unit_name":"711th Infantry Division"}},{"type":"Feature","geometry":{"type":"Point","coordinates":[0.79804,49.50675]},"properties":{"date":"1944-08-29","unit_country":"GMN","unit_type":"Infantry","unit_size":"Division","unit_name":"272nd Infantry Division"}},{"type":"Feature","geometry":{"type":"Point","coordinates":[0.94259,49.51068]},"properties":{"date":"1944-08-29","unit_country":"GMN","unit_type":"Infantry","unit_size":"Division","unit_name":"346th Infantry Division"}},{"type":"Feature","geometry":{"type":"Point","coordinates":[0.88239,49.4418]},"properties":{"date":"1944-08-29","unit_country":"GMN","unit_type":"Infantry","unit_size":"Division","unit_name":"85th Infantry Division"}},{"type":"Feature","geometry":{"type":"Point","coordinates":[1.29785,49.386]},"properties":{"date":"1944-08-29","unit_country":"GMN","unit_type":"Armoured","unit_size":"Division","unit_name":"2nd SS Panzer Division"}},{"type":"Feature","geometry":{"type":"Point","coordinates":[1.28524,49.31794]},"properties":{"date":"1944-08-29","unit_country":"GMN","unit_type":"Armoured","unit_size":"Division","unit_name":"10th SS Panzer Division"}},{"type":"Feature","geometry":{"type":"Point","coordinates":[1.41135,49.31057]},"properties":{"date":"1944-08-29","unit_country":"GMN","unit_type":"Armoured","unit_size":"Division","unit_name":"12th SS Panzer Division"}},{"type":"Feature","geometry":{"type":"Point","coordinates":[1.11534,49.534]},"properties":{"date":"1944-08-29","unit_country":"GMN","unit_type":"Armoured","unit_size":"Division","unit_name":"9th SS Panzer Division"}},{"type":"Feature","geometry":{"type":"Point","coordinates":[1.46036,49.36125]},"properties":{"date":"1944-08-29","unit_country":"GMN","unit_type":"Infantry","unit_size":"Division","unit_name":"17th Luftwaffe Division"}},{"type":"Feature","geometry":{"type":"Point","coordinates":[1.17459,49.4738]},"properties":{"date":"1944-08-29","unit_country":"GMN","unit_type":"Infantry","unit_size":"Division","unit_name":"331st Infantry Division"}},{"type":"Feature","geometry":{"type":"Point","coordinates":[1.72187,49.14305]},"properties":{"date":"1944-08-29","unit_country":"GMN","unit_type":"Infantry","unit_size":"Division","unit_name":"49th Infantry Division"}},{"type":"Feature","geometry":{"type":"Point","coordinates":[1.93673,49.0819]},"properties":{"date":"1944-08-29","unit_country":"GMN","unit_type":"Infantry","unit_size":"Division","unit_name":"18th Luftwaffe Division"}},{"type":"Feature","geometry":{"type":"Point","coordinates":[2.02477,49.03062]},"properties":{"date":"1944-08-29","unit_country":"GMN","unit_type":"Infantry","unit_size":"Division","unit_name":"47th Luftwaffe Division"}},{"type":"Feature","geometry":{"type":"Point","coordinates":[3.55251,48.97364]},"properties":{"date":"1944-08-29","unit_country":"GMN","unit_type":"Infantry","unit_size":"Division","unit_name":"48th Infantry Division"}},{"type":"Feature","geometry":{"type":"Point","coordinates":[2.85604,49.12664]},"properties":{"date":"1944-08-29","unit_country":"GMN","unit_type":"Armoured","unit_size":"Division","unit_name":"9th Panzer Division"}},{"type":"Feature","geometry":{"type":"Point","coordinates":[0.83112,49.56636]},"properties":{"date":"1944-08-29","unit_country":"GMN","unit_type":"Armoured","unit_size":"Division","unit_name":"21st Panzer Division"}},{"type":"Feature","geometry":{"type":"Point","coordinates":[1.59397,49.54423]},"properties":{"date":"1944-08-29","unit_country":"GMN","unit_type":"Armoured","unit_size":"Division","unit_name":"116th Panzer Division"}},{"type":"Feature","geometry":{"type":"Point","coordinates":[1.42646,49.2054]},"properties":{"date":"1944-08-29","unit_country":"GMN","unit_type":"Airborne","unit_size":"Division","unit_name":"6th Fallschirmjäger Division"}},{"type":"Feature","geometry":{"type":"Point","coordinates":[1.79694,48.99101]},"properties":{"date":"1944-08-29","unit_country":"USA","unit_type":"Armoured","unit_size":"Division","unit_name":"2nd Armoured Division"}},{"type":"Feature","geometry":{"type":"Point","coordinates":[1.70533,48.91724]},"properties":{"date":"1944-08-29","unit_country":"USA","unit_type":"Armoured","unit_size":"Division","unit_name":"5th Armoured Division"}},{"type":"Feature","geometry":{"type":"Point","coordinates":[1.0461,49.4719]},"properties":{"date":"1944-08-29","unit_country":"GMN","unit_type":"Infantry","unit_size":"Division","unit_name":"344th Infantry Division"}},{"type":"Feature","geometry":{"type":"Point","coordinates":[0.57663,48.78185]},"properties":{"date":"1944-08-29","unit_country":"GB","unit_type":"Armoured","unit_size":"Division","unit_name":"11th Armoured Division"}},{"type":"Feature","geometry":{"type":"Point","coordinates":[3.5735,49.11099]},"properties":{"date":"1944-08-29","unit_country":"USA","unit_type":"Infantry","unit_size":"Division","unit_name":"90th Infantry Division"}},{"type":"Feature","geometry":{"type":"Point","coordinates":[3.58879,48.86965]},"properties":{"date":"1944-08-29","unit_country":"USA","unit_type":"Infantry","unit_size":"Corp","unit_name":"Twentieth Corps"}},{"type":"Feature","geometry":{"type":"Point","coordinates":[-0.76335,48.02219]},"properties":{"date":"1944-08-29","unit_country":"USA","unit_type":"Infantry","unit_size":"Army Group","unit_name":"Twelfth Army Group"}},{"type":"Feature","geometry":{"type":"Point","coordinates":[1.12765,49.31158]},"properties":{"date":"1944-08-29","unit_country":"CAN","unit_type":"Infantry","unit_size":"Brigade","unit_name":"7th Canadian Infantry Brigade"}},{"type":"Feature","geometry":{"type":"Point","coordinates":[0.93038,49.25794]},"properties":{"date":"1944-08-29","unit_country":"CAN","unit_type":"Infantry","unit_size":"Brigade","unit_name":"8th Canadian Infantry Brigade"}},{"type":"Feature","geometry":{"type":"Point","coordinates":[1.16509,49.37417]},"properties":{"date":"1944-08-29","unit_country":"CAN","unit_type":"Infantry","unit_size":"Brigade","unit_name":"9th Canadian Infantry Brigade"}},{"type":"Feature","geometry":{"type":"Point","coordinates":[0.94253,49.29489]},"properties":{"date":"1944-08-29","unit_country":"CAN","unit_type":"Infantry","unit_size":"Brigade","unit_name":"4th Canadian Infantry Brigade"}},{"type":"Feature","geometry":{"type":"Point","coordinates":[1.17513,49.34867]},"properties":{"date":"1944-08-29","unit_country":"CAN","unit_type":"Infantry","unit_size":"Brigade","unit_name":"10th Canadian Infantry Brigade"}},{"type":"Feature","geometry":{"type":"Point","coordinates":[1.14379,49.35161]},"properties":{"date":"1944-08-29","unit_country":"CAN","unit_type":"Armoured","unit_size":"Brigade","unit_name":"4th Canadian Armoured Brigade"}},{"type":"Feature","geometry":{"type":"Point","coordinates":[0.79975,49.25171]},"properties":{"date":"1944-08-29","unit_country":"CAN","unit_type":"Infantry","unit_size":"Brigade","unit_name":"6th Canadian Infantry Brigade"}},{"type":"Feature","geometry":{"type":"Point","coordinates":[0.8761,49.28722]},"properties":{"date":"1944-08-29","unit_country":"CAN","unit_type":"Infantry","unit_size":"Division","unit_name":"2nd Canadian Infantry Division"}},{"type":"Feature","geometry":{"type":"Point","coordinates":[0.91251,49.26507]},"properties":{"date":"1944-08-29","unit_country":"CAN","unit_type":"Infantry","unit_size":"Battalion","unit_name":"The Queen?s Own Rifles of Canadaÿ"}},{"type":"Feature","geometry":{"type":"Point","coordinates":[1.1585,49.3961]},"properties":{"date":"1944-08-29","unit_country":"CAN","unit_type":"Infantry","unit_size":"Battalion","unit_name":"The North Nova Scotia Highlanders"}},{"type":"Feature","geometry":{"type":"Point","coordinates":[1.20192,49.39778]},"properties":{"date":"1944-08-29","unit_country":"CAN","unit_type":"Infantry","unit_size":"Battalion","unit_name":"North Shore (New Brunswick) Regiment"}},{"type":"Feature","geometry":{"type":"Point","coordinates":[1.13643,49.31185]},"properties":{"date":"1944-08-29","unit_country":"CAN","unit_type":"Infantry","unit_size":"Battalion","unit_name":"The Canadian Scottish Regiment"}},{"type":"Feature","geometry":{"type":"Point","coordinates":[1.11098,49.25876]},"properties":{"date":"1944-08-29","unit_country":"CAN","unit_type":"Armoured","unit_size":"Division","unit_name":"4th Armoured Division"}},{"type":"Feature","geometry":{"type":"Point","coordinates":[1.13051,49.31156]},"properties":{"date":"1944-08-29","unit_country":"CAN","unit_type":"Infantry","unit_size":"Battalion","unit_name":"The Regina Rifles"}},{"type":"Feature","geometry":{"type":"Point","coordinates":[1.12802,49.341]},"properties":{"date":"1944-08-29","unit_country":"CAN","unit_type":"Infantry","unit_size":"Battalion","unit_name":"The Royal Winnipeg Rifles"}},{"type":"Feature","geometry":{"type":"Point","coordinates":[1.25792,49.38417]},"properties":{"date":"1944-08-29","unit_country":"CAN","unit_type":"Armoured","unit_size":"Battalion","unit_name":"21st Armoured Regiment (The Governor General?s Foot Guards)"}},{"type":"Feature","geometry":{"type":"Point","coordinates":[1.16674,49.36461]},"properties":{"date":"1944-08-29","unit_country":"CAN","unit_type":"Infantry","unit_size":"Battalion","unit_name":"Highland Light Infantry of Canada"}},{"type":"Feature","geometry":{"type":"Point","coordinates":[1.16957,49.3662]},"properties":{"date":"1944-08-29","unit_country":"CAN","unit_type":"Infantry","unit_size":"Battalion","unit_name":"Stormont, Dundas & Glengarry Highlanders"}},{"type":"Feature","geometry":{"type":"Point","coordinates":[1.08361,49.24983]},"properties":{"date":"1944-08-29","unit_country":"CAN","unit_type":"Armoured","unit_size":"Battalion","unit_name":"6th Canadian Armoured Regiment (1st Hussars)ÿ"}},{"type":"Feature","geometry":{"type":"Point","coordinates":[0.98235,49.25935]},"properties":{"date":"1944-08-29","unit_country":"CAN","unit_type":"Reconnaissance","unit_size":"Battalion","unit_name":"7th Reconnaissance Regiment (17th Duke of York's Royal Canadian Hussars)"}},{"type":"Feature","geometry":{"type":"Point","coordinates":[1.14191,49.33606]},"properties":{"date":"1944-08-29","unit_country":"CAN","unit_type":"Artillery","unit_size":"Battalion","unit_name":"12th Field Regiment Royal Canadian Artillery"}},{"type":"Feature","geometry":{"type":"Point","coordinates":[1.08412,49.27554]},"properties":{"date":"1944-08-29","unit_country":"CAN","unit_type":"Artillery","unit_size":"Battalion","unit_name":"13th Field Regiment Royal Canadian Artillery"}},{"type":"Feature","geometry":{"type":"Point","coordinates":[1.15873,49.36953]},"properties":{"date":"1944-08-29","unit_country":"CAN","unit_type":"Artillery","unit_size":"Battalion","unit_name":"14th Field Regiment Royal Canadian Artillery"}},{"type":"Feature","geometry":{"type":"Point","coordinates":[1.14906,49.32028]},"properties":{"date":"1944-08-29","unit_country":"CAN","unit_type":"Armoured","unit_size":"Battalion","unit_name":"22nd Armoured Regiment (Canadian Grenadier Guards)"}},{"type":"Feature","geometry":{"type":"Point","coordinates":[1.14621,49.38526]},"properties":{"date":"1944-08-29","unit_country":"CAN","unit_type":"Mechanized","unit_size":"Battalion","unit_name":"The Lake Superior Regiment"}},{"type":"Feature","geometry":{"type":"Point","coordinates":[1.22217,49.38923]},"properties":{"date":"1944-08-29","unit_country":"CAN","unit_type":"Infantry","unit_size":"Battalion","unit_name":"The Lincoln & Welland Regiment"}},{"type":"Feature","geometry":{"type":"Point","coordinates":[1.18484,49.35568]},"properties":{"date":"1944-08-29","unit_country":"CAN","unit_type":"Infantry","unit_size":"Battalion","unit_name":"The Algonquin Regiment"}},{"type":"Feature","geometry":{"type":"Point","coordinates":[1.20066,49.38626]},"properties":{"date":"1944-08-29","unit_country":"CAN","unit_type":"Infantry","unit_size":"Battalion","unit_name":"The Argyll & Sutherland Highlanders of Canada (Princess Louise's)"}},{"type":"Feature","geometry":{"type":"Point","coordinates":[0.92844,49.30242]},"properties":{"date":"1944-08-29","unit_country":"CAN","unit_type":"Armoured","unit_size":"Battalion","unit_name":"27th Canadian Armoured Regiment (The Sherbrooke Fusiliers)ÿ"}},{"type":"Feature","geometry":{"type":"Point","coordinates":[1.00646,49.28058]},"properties":{"date":"1944-08-29","unit_country":"CAN","unit_type":"Infantry","unit_size":"Brigade","unit_name":"5th Canadian Infantry Brigade"}},{"type":"Feature","geometry":{"type":"Point","coordinates":[-0.6407,49.3209]},"properties":{"date":"1944-08-29","unit_country":"CAN","unit_type":"Artillery","unit_size":"Battalion","unit_name":"19th Field Regiment Royal Canadian Artillery"}},{"type":"Feature","geometry":{"type":"Point","coordinates":[0.92915,49.26622]},"properties":{"date":"1944-08-29","unit_country":"CAN","unit_type":"Infantry","unit_size":"Battalion","unit_name":"The Royal Regiment of Canada"}},{"type":"Feature","geometry":{"type":"Point","coordinates":[1.08263,49.2485]},"properties":{"date":"1944-08-29","unit_country":"CAN","unit_type":"Armoured","unit_size":"Brigade","unit_name":"2nd Canadian Armoured Brigade"}},{"type":"Feature","geometry":{"type":"Point","coordinates":[1.09924,49.31349]},"properties":{"date":"1944-08-29","unit_country":"CAN","unit_type":"Artillery","unit_size":"Battalion","unit_name":"15th Field Regiment, Royal Canadian Artillery"}},{"type":"Feature","geometry":{"type":"Point","coordinates":[1.15671,49.33679]},"properties":{"date":"1944-08-29","unit_country":"CAN","unit_type":"Artillery","unit_size":"Battalion","unit_name":"23rd Field Regiment, Royal Canadian Artillery"}},{"type":"Feature","geometry":{"type":"Point","coordinates":[0.99543,49.31418]},"properties":{"date":"1944-08-29","unit_country":"CAN","unit_type":"Infantry","unit_size":"Battalion","unit_name":"Essex Scottish Regiment"}},{"type":"Feature","geometry":{"type":"Point","coordinates":[0.95402,49.30235]},"properties":{"date":"1944-08-29","unit_country":"CAN","unit_type":"Infantry","unit_size":"Battalion","unit_name":"The Calgary Highlanders"}},{"type":"Feature","geometry":{"type":"Point","coordinates":[0.97418,49.31042]},"properties":{"date":"1944-08-29","unit_country":"CAN","unit_type":"Infantry","unit_size":"Battalion","unit_name":"Royal Hamilton Light Infantry"}},{"type":"Feature","geometry":{"type":"Point","coordinates":[1.1718,49.34435]},"properties":{"date":"1944-08-29","unit_country":"CAN","unit_type":"Reconnaissance","unit_size":"Battalion","unit_name":"29th Reconnaissance Regiment (The South Alberta Regiment)"}},{"type":"Feature","geometry":{"type":"Point","coordinates":[0.95061,49.33993]},"properties":{"date":"1944-08-29","unit_country":"CAN","unit_type":"Infantry","unit_size":"Battalion","unit_name":"Queen's Own Cameron Highlanders of Canada"}},{"type":"Feature","geometry":{"type":"Point","coordinates":[0.95943,49.30302]},"properties":{"date":"1944-08-29","unit_country":"CAN","unit_type":"Infantry","unit_size":"Battalion","unit_name":"Le Regiment de Maisonneuve"}},{"type":"Feature","geometry":{"type":"Point","coordinates":[0.91554,49.3417]},"properties":{"date":"1944-08-29","unit_country":"CAN","unit_type":"Infantry","unit_size":"Battalion","unit_name":"Les Fusiliers Mont-Royal"}},{"type":"Feature","geometry":{"type":"Point","coordinates":[0.93083,49.3445]},"properties":{"date":"1944-08-29","unit_country":"CAN","unit_type":"Infantry","unit_size":"Battalion","unit_name":"The Black Watch (Royal Highalnders) of Canada"}},{"type":"Feature","geometry":{"type":"Point","coordinates":[0.95799,49.33916]},"properties":{"date":"1944-08-29","unit_country":"CAN","unit_type":"Infantry","unit_size":"Battalion","unit_name":"The South Sasketchewan Regiment"}},{"type":"Feature","geometry":{"type":"Point","coordinates":[1.23168,49.36964]},"properties":{"date":"1944-08-29","unit_country":"CAN","unit_type":"Armoured","unit_size":"Battalion","unit_name":"28th Armoured Regiment (The British Columbia Regiment, Duke of Connaught's Own Rifles)"}},{"type":"Feature","geometry":{"type":"Point","coordinates":[0.36946,49.37506]},"properties":{"date":"1944-08-29","unit_country":"CAN","unit_type":"Airborne","unit_size":"Battalion","unit_name":"1st Canadian Parachute Battalion"}},{"type":"Feature","geometry":{"type":"Point","coordinates":[1.09719,49.31717]},"properties":{"date":"1944-08-29","unit_country":"CAN","unit_type":"Engineer","unit_size":"Company","unit_name":"6th Field Company, Royal Canadian Engineers"}},{"type":"Feature","geometry":{"type":"Point","coordinates":[0.94615,49.25833]},"properties":{"date":"1944-08-29","unit_country":"CAN","unit_type":"Infantry","unit_size":"Division","unit_name":"3rd Canadian Infantry Division"}},{"type":"Feature","geometry":{"type":"Point","coordinates":[1.16984,49.36035]},"properties":{"date":"1944-08-29","unit_country":"CAN","unit_type":"Armoured","unit_size":"Battalion","unit_name":"10th Canadian Armoured Regiment (The Fort Garry Horse)"}},{"type":"Feature","geometry":{"type":"Point","coordinates":[0.9108,49.29274]},"properties":{"date":"1944-08-29","unit_country":"CAN","unit_type":"Artillery","unit_size":"Battalion","unit_name":"5th Field Regiment, Royal Canadian Artillery"}},{"type":"Feature","geometry":{"type":"Point","coordinates":[0.92801,49.2994]},"properties":{"date":"1944-08-29","unit_country":"CAN","unit_type":"Artillery","unit_size":"Battalion","unit_name":"6th Field Regiment, Royal Canadian Artillery"}},{"type":"Feature","geometry":{"type":"Point","coordinates":[0.91337,49.28402]},"properties":{"date":"1944-08-29","unit_country":"CAN","unit_type":"Artillery","unit_size":"Battalion","unit_name":"4th Field Regiment, Royal Canadian Artillery"}},{"type":"Feature","geometry":{"type":"Point","coordinates":[0.94359,49.33914]},"properties":{"date":"1944-08-29","unit_country":"CAN","unit_type":"Reconnaissance","unit_size":"Battalion","unit_name":"8th Reconnaissance Regiment (14th Canadian Hussars)"}},{"type":"Feature","geometry":{"type":"Point","coordinates":[0.94094,49.26705]},"properties":{"date":"1944-08-29","unit_country":"Can","unit_type":"Infantry","unit_size":"Battalion","unit_name":"Regiment de la Chaudiere"}},{"type":"Feature","geometry":{"type":"Point","coordinates":[1.10379,49.31864]},"properties":{"date":"1944-08-29","unit_country":"CAN","unit_type":"Engineer","unit_size":"Company","unit_name":"18th Field Company Royal Canadian Engineers"}},{"type":"Feature","geometry":{"type":"Point","coordinates":[0.86441,49.23307]},"properties":{"date":"1944-08-29","unit_country":"CAN","unit_type":"Engineer","unit_size":"Company","unit_name":"5th Field Company Royal Canadian Engineers"}},{"type":"Feature","geometry":{"type":"Point","coordinates":[1.13337,49.32225]},"properties":{"date":"1944-08-29","unit_country":"CAN","unit_type":"Engineer","unit_size":"Company","unit_name":"16th Field Company Royal Canadian Engineers"}},{"type":"Feature","geometry":{"type":"Point","coordinates":[0.95546,49.33852]},"properties":{"date":"1944-08-29","unit_country":"CAN","unit_type":"Infantry","unit_size":"Platoon","unit_name":"Toronto Scottish Regiment"}},{"type":"Feature","geometry":{"type":"Point","coordinates":[1.12987,49.33692]},"properties":{"date":"1944-08-29","unit_country":"CAN","unit_type":"Infantry","unit_size":"Company","unit_name":"Toronto Scottish Regiment"}},{"type":"Feature","geometry":{"type":"Point","coordinates":[1.05723,49.21366]},"properties":{"date":"1944-08-29","unit_country":"CAN","unit_type":"Engineer","unit_size":"Company","unit_name":"6th Field Park Squadron"}},{"type":"Feature","geometry":{"type":"Point","coordinates":[1.00744,49.29122]},"properties":{"date":"1944-08-29","unit_country":"CAN","unit_type":"Infantry","unit_size":"Battalion","unit_name":"The Cameron Highlanders of Ottawa (Duke of Edinburgh's Own)"}}]}