{"type":"FeatureCollection","features":[{"type":"Feature","geometry":{"type":"Point","coordinates":[-0.56132,49.3312]},"properties":{"date":"1944-06-08","unit_country":"GB","unit_type":"Infantry","unit_size":"Division","unit_name":"50th Infantry Division"}},{"type":"Feature","geometry":{"type":"Point","coordinates":[-0.58154,49.31811]},"properties":{"date":"1944-06-08","unit_country":"GB","unit_type":"Armoured","unit_size":"Brigade","unit_name":"8 Brigade"}},{"type":"Feature","geometry":{"type":"Point","coordinates":[-0.61247,49.3199]},"properties":{"date":"1944-06-08","unit_country":"GB","unit_type":"Armoured","unit_size":"Division","unit_name":"7th Armoured Division"}},{"type":"Feature","geometry":{"type":"Point","coordinates":[-0.50259,49.31369]},"properties":{"date":"1944-06-08","unit_country":"GB","unit_type":"Infantry","unit_size":"Army Group","unit_name":"Twenty-First Army Group"}},{"type":"Feature","geometry":{"type":"Point","coordinates":[-0.44489,49.33748]},"properties":{"date":"1944-06-08","unit_country":"GB","unit_type":"Infantry","unit_size":"Corp","unit_name":"First Corps"}},{"type":"Feature","geometry":{"type":"Point","coordinates":[-1.19373,49.43939]},"properties":{"date":"1944-06-08","unit_country":"USA","unit_type":"Infantry","unit_size":"Corp","unit_name":"Eighth Corps"}},{"type":"Feature","geometry":{"type":"Point","coordinates":[-1.2152,49.41488]},"properties":{"date":"1944-06-08","unit_country":"USA","unit_type":"Infantry","unit_size":"Division","unit_name":"4th Infantry Division"}},{"type":"Feature","geometry":{"type":"Point","coordinates":[-1.28992,49.34968]},"properties":{"date":"1944-06-08","unit_country":"USA","unit_type":"Airborne","unit_size":"Division","unit_name":"82nd Airborne Division"}},{"type":"Feature","geometry":{"type":"Point","coordinates":[-1.24423,49.32494]},"properties":{"date":"1944-06-08","unit_country":"USA","unit_type":"Airborne","unit_size":"Division","unit_name":"101st Airborne Division"}},{"type":"Feature","geometry":{"type":"Point","coordinates":[-0.18704,49.20834]},"properties":{"date":"1944-06-08","unit_country":"GB","unit_type":"Airborne","unit_size":"Brigade","unit_name":"3 Brigade"}},{"type":"Feature","geometry":{"type":"Point","coordinates":[-0.23058,49.21548]},"properties":{"date":"1944-06-08","unit_country":"GB","unit_type":"Airborne","unit_size":"Brigade","unit_name":"6 Brigade"}},{"type":"Feature","geometry":{"type":"Point","coordinates":[-0.25057,49.23832]},"properties":{"date":"1944-06-08","unit_country":"GB","unit_type":"Airborne","unit_size":"Division","unit_name":"6th Airborne Division"}},{"type":"Feature","geometry":{"type":"Point","coordinates":[-0.25628,49.21762]},"properties":{"date":"1944-06-08","unit_country":"GB","unit_type":"Airborne","unit_size":"Brigade","unit_name":"5 Brigade"}},{"type":"Feature","geometry":{"type":"Point","coordinates":[-0.29554,49.28972]},"properties":{"date":"1944-06-08","unit_country":"GB","unit_type":"Armoured","unit_size":"Brigade","unit_name":"41 Brigade"}},{"type":"Feature","geometry":{"type":"Point","coordinates":[-0.32885,49.27544]},"properties":{"date":"1944-06-08","unit_country":"GB","unit_type":"Infantry","unit_size":"Division","unit_name":"3rd Infantry Division"}},{"type":"Feature","geometry":{"type":"Point","coordinates":[-0.37264,49.24689]},"properties":{"date":"1944-06-08","unit_country":"GB","unit_type":"Armoured","unit_size":"Brigade","unit_name":"37 Brigade"}},{"type":"Feature","geometry":{"type":"Point","coordinates":[-1.46647,49.52422]},"properties":{"date":"1944-06-08","unit_country":"GMN","unit_type":"Infantry","unit_size":"Division","unit_name":"709th Infantry Division"}},{"type":"Feature","geometry":{"type":"Point","coordinates":[-1.62637,49.41143]},"properties":{"date":"1944-06-08","unit_country":"GMN","unit_type":"Infantry","unit_size":"Division","unit_name":"243rd Infantry Division"}},{"type":"Feature","geometry":{"type":"Point","coordinates":[-1.48289,49.48067]},"properties":{"date":"1944-06-08","unit_country":"GMN","unit_type":"Infantry","unit_size":"Regiment","unit_name":"1057 Regiment"}},{"type":"Feature","geometry":{"type":"Point","coordinates":[-1.3644,49.5335]},"properties":{"date":"1944-06-08","unit_country":"GMN","unit_type":"Infantry","unit_size":"Regiment","unit_name":"919 Regiment"}},{"type":"Feature","geometry":{"type":"Point","coordinates":[-1.35644,49.46994]},"properties":{"date":"1944-06-08","unit_country":"GMN","unit_type":"Infantry","unit_size":"Division","unit_name":"91st Infantry Division"}},{"type":"Feature","geometry":{"type":"Point","coordinates":[-1.25335,49.28863]},"properties":{"date":"1944-06-08","unit_country":"GMN","unit_type":"Airborne","unit_size":"Regiment","unit_name":"6 Regiment"}},{"type":"Feature","geometry":{"type":"Point","coordinates":[-1.45294,49.04159]},"properties":{"date":"1944-06-08","unit_country":"GMN","unit_type":"Cavalry","unit_size":"Brigade","unit_name":"30 Brigade"}},{"type":"Feature","geometry":{"type":"Point","coordinates":[-1.20708,49.14661]},"properties":{"date":"1944-06-08","unit_country":"GMN","unit_type":"Infantry","unit_size":"Division","unit_name":"245th Infantry Division"}},{"type":"Feature","geometry":{"type":"Point","coordinates":[-1.09287,49.1152]},"properties":{"date":"1944-06-08","unit_country":"GMN","unit_type":"Infantry","unit_size":"Corp","unit_name":"84th Corps"}},{"type":"Feature","geometry":{"type":"Point","coordinates":[-1.0398,49.37646]},"properties":{"date":"1944-06-08","unit_country":"GMN","unit_type":"Infantry","unit_size":"Regiment","unit_name":"914 Regiment"}},{"type":"Feature","geometry":{"type":"Point","coordinates":[-0.97556,49.33125]},"properties":{"date":"1944-06-08","unit_country":"GMN","unit_type":"Infantry","unit_size":"Regiment","unit_name":"915 Regiment"}},{"type":"Feature","geometry":{"type":"Point","coordinates":[-0.83933,49.29973]},"properties":{"date":"1944-06-08","unit_country":"GMN","unit_type":"Infantry","unit_size":"Regiment","unit_name":"916 Regiment"}},{"type":"Feature","geometry":{"type":"Point","coordinates":[-0.96782,49.28188]},"properties":{"date":"1944-06-08","unit_country":"GMN","unit_type":"Infantry","unit_size":"Division","unit_name":"356th Infantry Division"}},{"type":"Feature","geometry":{"type":"Point","coordinates":[-0.76319,49.28604]},"properties":{"date":"1944-06-08","unit_country":"GMN","unit_type":"Infantry","unit_size":"Regiment","unit_name":"726 Regiment"}},{"type":"Feature","geometry":{"type":"Point","coordinates":[-0.64612,49.17766]},"properties":{"date":"1944-06-08","unit_country":"GMN","unit_type":"Infantry","unit_size":"Division","unit_name":"716th Infantry Division"}},{"type":"Feature","geometry":{"type":"Point","coordinates":[-0.688,49.06916]},"properties":{"date":"1944-06-08","unit_country":"GMN","unit_type":"Armoured","unit_size":"Division","unit_name":"12th Panzer Division"}},{"type":"Feature","geometry":{"type":"Point","coordinates":[-0.45481,49.15291]},"properties":{"date":"1944-06-08","unit_country":"GMN","unit_type":"Infantry","unit_size":"Regiment","unit_name":"25 Regiment"}},{"type":"Feature","geometry":{"type":"Point","coordinates":[-0.35107,49.12055]},"properties":{"date":"1944-06-08","unit_country":"GMN","unit_type":"Armoured","unit_size":"Division","unit_name":"21st Panzer Division"}},{"type":"Feature","geometry":{"type":"Point","coordinates":[-0.27873,49.19812]},"properties":{"date":"1944-06-08","unit_country":"GMN","unit_type":"Infantry","unit_size":"Regiment","unit_name":"125 Regiment"}},{"type":"Feature","geometry":{"type":"Point","coordinates":[-0.1826,49.1986]},"properties":{"date":"1944-06-08","unit_country":"GMN","unit_type":"Infantry","unit_size":"Regiment","unit_name":"957 Regiment"}},{"type":"Feature","geometry":{"type":"Point","coordinates":[-0.16975,49.22763]},"properties":{"date":"1944-06-08","unit_country":"GMN","unit_type":"Infantry","unit_size":"Regiment","unit_name":"744 Regiment"}},{"type":"Feature","geometry":{"type":"Point","coordinates":[0.03821,49.24381]},"properties":{"date":"1944-06-08","unit_country":"GMN","unit_type":"Infantry","unit_size":"Division","unit_name":"714th Infantry Division"}},{"type":"Feature","geometry":{"type":"Point","coordinates":[-0.86558,49.35978]},"properties":{"date":"1944-06-08","unit_country":"USA","unit_type":"Infantry","unit_size":"Corp","unit_name":"Fifth Corps"}},{"type":"Feature","geometry":{"type":"Point","coordinates":[-1.2805,49.44419]},"properties":{"date":"1944-06-08","unit_country":"GMN","unit_type":"Infantry","unit_size":"Regiment","unit_name":"1058 Regiment"}},{"type":"Feature","geometry":{"type":"Point","coordinates":[-0.42187,49.28135]},"properties":{"date":"1944-06-08","unit_country":"CAN","unit_type":"Infantry","unit_size":"Brigade","unit_name":"9th Canadian Infantry Brigade"}},{"type":"Feature","geometry":{"type":"Point","coordinates":[-0.3951,49.26435]},"properties":{"date":"1944-06-08","unit_country":"CAN","unit_type":"Infantry","unit_size":"Brigade","unit_name":"8th Canadian Infantry Brigade"}},{"type":"Feature","geometry":{"type":"Point","coordinates":[-0.51587,49.21547]},"properties":{"date":"1944-06-08","unit_country":"CAN","unit_type":"Infantry","unit_size":"Brigade","unit_name":"7th Canadian Infantry Brigade"}},{"type":"Feature","geometry":{"type":"Point","coordinates":[-0.4051,49.26387]},"properties":{"date":"1944-06-08","unit_country":"CAN","unit_type":"Infantry","unit_size":"Battalion","unit_name":"The Queen?s Own Rifles of Canadaÿ"}},{"type":"Feature","geometry":{"type":"Point","coordinates":[-0.41689,49.23621]},"properties":{"date":"1944-06-08","unit_country":"CAN","unit_type":"Infantry","unit_size":"Battalion","unit_name":"The North Nova Scotia Highlanders"}},{"type":"Feature","geometry":{"type":"Point","coordinates":[-0.39379,49.26645]},"properties":{"date":"1944-06-08","unit_country":"CAN","unit_type":"Infantry","unit_size":"Battalion","unit_name":"North Shore (New Brunswick) Regiment"}},{"type":"Feature","geometry":{"type":"Point","coordinates":[-0.51502,49.23417]},"properties":{"date":"1944-06-08","unit_country":"CAN","unit_type":"Infantry","unit_size":"Battalion","unit_name":"The Canadian Scottish Regiment"}},{"type":"Feature","geometry":{"type":"Point","coordinates":[-0.5086,49.21013]},"properties":{"date":"1944-06-08","unit_country":"CAN","unit_type":"Infantry","unit_size":"Battalion","unit_name":"The Regina Rifles"}},{"type":"Feature","geometry":{"type":"Point","coordinates":[-0.52831,49.22154]},"properties":{"date":"1944-06-08","unit_country":"CAN","unit_type":"Infantry","unit_size":"Battalion","unit_name":"The Royal Winnipeg Rifles"}},{"type":"Feature","geometry":{"type":"Point","coordinates":[-0.41038,49.23934]},"properties":{"date":"1944-06-08","unit_country":"CAN","unit_type":"Infantry","unit_size":"Battalion","unit_name":"Highland Light Infantry of Canada"}},{"type":"Feature","geometry":{"type":"Point","coordinates":[-0.41188,49.23363]},"properties":{"date":"1944-06-08","unit_country":"CAN","unit_type":"Infantry","unit_size":"Battalion","unit_name":"Stormont, Dundas & Glengarry Highlanders"}},{"type":"Feature","geometry":{"type":"Point","coordinates":[-0.51814,49.23596]},"properties":{"date":"1944-06-08","unit_country":"CAN","unit_type":"Armoured","unit_size":"Battalion","unit_name":"6th Canadian Armoured Regiment (1st Hussars)ÿ"}},{"type":"Feature","geometry":{"type":"Point","coordinates":[-0.49032,49.23213]},"properties":{"date":"1944-06-08","unit_country":"CAN","unit_type":"Artillery","unit_size":"Battalion","unit_name":"12th Field Regiment Royal Canadian Artillery"}},{"type":"Feature","geometry":{"type":"Point","coordinates":[-0.48294,49.31845]},"properties":{"date":"1944-06-08","unit_country":"CAN","unit_type":"Artillery","unit_size":"Battalion","unit_name":"13th Field Regiment Royal Canadian Artillery"}},{"type":"Feature","geometry":{"type":"Point","coordinates":[-0.36758,49.27307]},"properties":{"date":"1944-06-08","unit_country":"CAN","unit_type":"Artillery","unit_size":"Battalion","unit_name":"14th Field Regiment Royal Canadian Artillery"}},{"type":"Feature","geometry":{"type":"Point","coordinates":[-0.41885,49.23243]},"properties":{"date":"1944-06-08","unit_country":"CAN","unit_type":"Armoured","unit_size":"Battalion","unit_name":"27th Canadian Armoured Regiment (The Sherbrooke Fusiliers)ÿ"}},{"type":"Feature","geometry":{"type":"Point","coordinates":[-0.41941,49.27224]},"properties":{"date":"1944-06-08","unit_country":"CAN","unit_type":"Artillery","unit_size":"Battalion","unit_name":"19th Field Regiment Royal Canadian Artillery"}},{"type":"Feature","geometry":{"type":"Point","coordinates":[-0.41827,49.28054]},"properties":{"date":"1944-06-08","unit_country":"CAN","unit_type":"Armoured","unit_size":"Brigade","unit_name":"2nd Canadian Armoured Brigade"}},{"type":"Feature","geometry":{"type":"Point","coordinates":[-0.19691,49.24137]},"properties":{"date":"1944-06-08","unit_country":"CAN","unit_type":"Airborne","unit_size":"Battalion","unit_name":"1st Canadian Parachute Battalion"}},{"type":"Feature","geometry":{"type":"Point","coordinates":[-0.47625,49.24845]},"properties":{"date":"1944-06-08","unit_country":"CAN","unit_type":"Engineer","unit_size":"Company","unit_name":"6th Field Company, Royal Canadian Engineers"}},{"type":"Feature","geometry":{"type":"Point","coordinates":[-0.43409,49.28978]},"properties":{"date":"1944-06-08","unit_country":"CAN","unit_type":"Infantry","unit_size":"Division","unit_name":"3rd Canadian Infantry Division"}},{"type":"Feature","geometry":{"type":"Point","coordinates":[-0.41089,49.25718]},"properties":{"date":"1944-06-08","unit_country":"CAN","unit_type":"Armoured","unit_size":"Battalion","unit_name":"10th Canadian Armoured Regiment (The Fort Garry Horse)"}},{"type":"Feature","geometry":{"type":"Point","coordinates":[-0.41528,49.26731]},"properties":{"date":"1944-06-08","unit_country":"Can","unit_type":"Infantry","unit_size":"Battalion","unit_name":"Regiment de la Chaudiere"}},{"type":"Feature","geometry":{"type":"Point","coordinates":[-0.46413,49.29529]},"properties":{"date":"1944-06-08","unit_country":"CAN","unit_type":"Engineer","unit_size":"Company","unit_name":"18th Field Company Royal Canadian Engineers"}},{"type":"Feature","geometry":{"type":"Point","coordinates":[-0.42334,49.32935]},"properties":{"date":"1944-06-08","unit_country":"CAN","unit_type":"Engineer","unit_size":"Company","unit_name":"5th Field Company Royal Canadian Engineers"}},{"type":"Feature","geometry":{"type":"Point","coordinates":[-0.40999,49.26977]},"properties":{"date":"1944-06-08","unit_country":"CAN","unit_type":"Engineer","unit_size":"Company","unit_name":"16th Field Company Royal Canadian Engineers"}}]}