{"type":"FeatureCollection","features":[{"type":"Feature","geometry":{"type":"Point","coordinates":[-1.44115,49.50248]},"properties":{"date":"1944-06-11","unit_country":"GMN","unit_type":"Infantry","unit_size":"Division","unit_name":"709th Infantry Division"}},{"type":"Feature","geometry":{"type":"Point","coordinates":[-1.43448,49.43824]},"properties":{"date":"1944-06-11","unit_country":"GMN","unit_type":"Infantry","unit_size":"Division","unit_name":"243rd Infantry Division"}},{"type":"Feature","geometry":{"type":"Point","coordinates":[-1.45637,49.38399]},"properties":{"date":"1944-06-11","unit_country":"GMN","unit_type":"Infantry","unit_size":"Division","unit_name":"91st Infantry Division"}},{"type":"Feature","geometry":{"type":"Point","coordinates":[-1.37024,49.38351]},"properties":{"date":"1944-06-11","unit_country":"USA","unit_type":"Infantry","unit_size":"Division","unit_name":"4th Infantry Division"}},{"type":"Feature","geometry":{"type":"Point","coordinates":[-1.37642,49.47345]},"properties":{"date":"1944-06-11","unit_country":"USA","unit_type":"Infantry","unit_size":"Division","unit_name":"90th Infantry Division"}},{"type":"Feature","geometry":{"type":"Point","coordinates":[-1.33883,49.39731]},"properties":{"date":"1944-06-11","unit_country":"USA","unit_type":"Airborne","unit_size":"Division","unit_name":"82nd Airborne Division"}},{"type":"Feature","geometry":{"type":"Point","coordinates":[-1.26649,49.35067]},"properties":{"date":"1944-06-11","unit_country":"USA","unit_type":"Airborne","unit_size":"Division","unit_name":"101st Airborne Division"}},{"type":"Feature","geometry":{"type":"Point","coordinates":[-1.23651,49.40112]},"properties":{"date":"1944-06-11","unit_country":"USA","unit_type":"Infantry","unit_size":"Corp","unit_name":"Seventh Corps"}},{"type":"Feature","geometry":{"type":"Point","coordinates":[-1.28981,49.47917]},"properties":{"date":"1944-06-11","unit_country":"USA","unit_type":"Infantry","unit_size":"Division","unit_name":"9th Infantry Division"}},{"type":"Feature","geometry":{"type":"Point","coordinates":[-1.22592,49.28572]},"properties":{"date":"1944-06-11","unit_country":"GMN","unit_type":"Airborne","unit_size":"Battalion","unit_name":"6th Fallschirmjäger Battalion"}},{"type":"Feature","geometry":{"type":"Point","coordinates":[-1.27113,49.24645]},"properties":{"date":"1944-06-11","unit_country":"GMN","unit_type":"Airborne","unit_size":"Battalion","unit_name":"6th Fallschirmjäger Battalion"}},{"type":"Feature","geometry":{"type":"Point","coordinates":[-1.24436,49.13284]},"properties":{"date":"1944-06-11","unit_country":"GMN","unit_type":"Infantry","unit_size":"Division","unit_name":"245th Infantry Division"}},{"type":"Feature","geometry":{"type":"Point","coordinates":[-0.95407,49.09655]},"properties":{"date":"1944-06-11","unit_country":"GMN","unit_type":"Infantry","unit_size":"Division","unit_name":"352nd Infantry Division"}},{"type":"Feature","geometry":{"type":"Point","coordinates":[-0.95288,49.05788]},"properties":{"date":"1944-06-11","unit_country":"GMN","unit_type":"Cavalry","unit_size":"Brigade","unit_name":"30 Brigade"}},{"type":"Feature","geometry":{"type":"Point","coordinates":[-1.10219,49.12332]},"properties":{"date":"1944-06-11","unit_country":"GMN","unit_type":"Infantry","unit_size":"Corp","unit_name":"84th Corps"}},{"type":"Feature","geometry":{"type":"Point","coordinates":[-1.04092,49.25538]},"properties":{"date":"1944-06-11","unit_country":"USA","unit_type":"Infantry","unit_size":"Division","unit_name":"29th Infantry Division"}},{"type":"Feature","geometry":{"type":"Point","coordinates":[-0.92314,49.20422]},"properties":{"date":"1944-06-11","unit_country":"USA","unit_type":"Infantry","unit_size":"Division","unit_name":"2nd Infantry Division"}},{"type":"Feature","geometry":{"type":"Point","coordinates":[-0.79227,49.253]},"properties":{"date":"1944-06-11","unit_country":"USA","unit_type":"Infantry","unit_size":"Division","unit_name":"1st Infantry Division"}},{"type":"Feature","geometry":{"type":"Point","coordinates":[-0.99571,49.39398]},"properties":{"date":"1944-06-11","unit_country":"USA","unit_type":"Infantry","unit_size":"Army","unit_name":"First Army"}},{"type":"Feature","geometry":{"type":"Point","coordinates":[-0.89875,49.38446]},"properties":{"date":"1944-06-11","unit_country":"USA","unit_type":"Ranger","unit_size":"Battalion","unit_name":"2 Battalion"}},{"type":"Feature","geometry":{"type":"Point","coordinates":[-0.90589,49.38922]},"properties":{"date":"1944-06-11","unit_country":"USA","unit_type":"Armoured","unit_size":"Division","unit_name":"2nd Armoured Division"}},{"type":"Feature","geometry":{"type":"Point","coordinates":[-0.8928,49.34639]},"properties":{"date":"1944-06-11","unit_country":"USA","unit_type":"Infantry","unit_size":"Division","unit_name":"2nd Infantry Division"}},{"type":"Feature","geometry":{"type":"Point","coordinates":[-0.83426,49.3571]},"properties":{"date":"1944-06-11","unit_country":"USA","unit_type":"Infantry","unit_size":"Corp","unit_name":"Fifth Corps"}},{"type":"Feature","geometry":{"type":"Point","coordinates":[-0.71898,49.26014]},"properties":{"date":"1944-06-11","unit_country":"GB","unit_type":"Infantry","unit_size":"Division","unit_name":"50th Infantry Division"}},{"type":"Feature","geometry":{"type":"Point","coordinates":[-0.70232,49.17257]},"properties":{"date":"1944-06-11","unit_country":"GMN","unit_type":"Armoured","unit_size":"Division","unit_name":"Panzer Lehr Division"}},{"type":"Feature","geometry":{"type":"Point","coordinates":[-0.5862,49.15925]},"properties":{"date":"1944-06-11","unit_country":"GMN","unit_type":"Armoured","unit_size":"Division","unit_name":"12th Panzer Division"}},{"type":"Feature","geometry":{"type":"Point","coordinates":[-0.58906,49.20826]},"properties":{"date":"1944-06-11","unit_country":"GB","unit_type":"Armoured","unit_size":"Division","unit_name":"7th Armoured Division"}},{"type":"Feature","geometry":{"type":"Point","coordinates":[-0.50388,49.23777]},"properties":{"date":"1944-06-11","unit_country":"GB","unit_type":"Infantry","unit_size":"Division","unit_name":"51st Infantry Division"}},{"type":"Feature","geometry":{"type":"Point","coordinates":[-0.46818,49.16781]},"properties":{"date":"1944-06-11","unit_country":"GMN","unit_type":"Infantry","unit_size":"Division","unit_name":"716th Infantry Division"}},{"type":"Feature","geometry":{"type":"Point","coordinates":[-0.3711,49.20351]},"properties":{"date":"1944-06-11","unit_country":"GMN","unit_type":"Infantry","unit_size":"Division","unit_name":"21st Infantry Division"}},{"type":"Feature","geometry":{"type":"Point","coordinates":[-0.32113,49.23396]},"properties":{"date":"1944-06-11","unit_country":"GB","unit_type":"Infantry","unit_size":"Division","unit_name":"3rd Infantry Division"}},{"type":"Feature","geometry":{"type":"Point","coordinates":[-0.25165,49.2254]},"properties":{"date":"1944-06-11","unit_country":"GB","unit_type":"Airborne","unit_size":"Division","unit_name":"6th Airborne Division"}},{"type":"Feature","geometry":{"type":"Point","coordinates":[-0.35397,49.30677]},"properties":{"date":"1944-06-11","unit_country":"GB","unit_type":"Infantry","unit_size":"Corp","unit_name":"First Corps"}},{"type":"Feature","geometry":{"type":"Point","coordinates":[-0.20168,49.29619]},"properties":{"date":"1944-06-11","unit_country":"GB","unit_type":"Infantry","unit_size":"Division","unit_name":"1st Infantry Division"}},{"type":"Feature","geometry":{"type":"Point","coordinates":[-0.17254,49.2593]},"properties":{"date":"1944-06-11","unit_country":"GMN","unit_type":"Infantry","unit_size":"Division","unit_name":"711th Infantry Division"}},{"type":"Feature","geometry":{"type":"Point","coordinates":[-0.1761,49.21397]},"properties":{"date":"1944-06-11","unit_country":"GMN","unit_type":"Infantry","unit_size":"Division","unit_name":"346th Infantry Division"}},{"type":"Feature","geometry":{"type":"Point","coordinates":[-0.24535,49.18364]},"properties":{"date":"1944-06-11","unit_country":"GMN","unit_type":"Infantry","unit_size":"Division","unit_name":"125 Infantry Division"}},{"type":"Feature","geometry":{"type":"Point","coordinates":[-0.53298,49.30125]},"properties":{"date":"1944-06-11","unit_country":"GB","unit_type":"Infantry","unit_size":"Army Group","unit_name":"Twenty-First Army Group"}},{"type":"Feature","geometry":{"type":"Point","coordinates":[-0.474,49.32974]},"properties":{"date":"1944-06-11","unit_country":"GB","unit_type":"Infantry","unit_size":"Army","unit_name":"Second Army"}},{"type":"Feature","geometry":{"type":"Point","coordinates":[-0.48791,49.22843]},"properties":{"date":"1944-06-11","unit_country":"CAN","unit_type":"Infantry","unit_size":"Brigade","unit_name":"8th Canadian Infantry Brigade"}},{"type":"Feature","geometry":{"type":"Point","coordinates":[-0.41061,49.26637]},"properties":{"date":"1944-06-11","unit_country":"CAN","unit_type":"Infantry","unit_size":"Brigade","unit_name":"9th Canadian Infantry Brigade"}},{"type":"Feature","geometry":{"type":"Point","coordinates":[-0.51587,49.21547]},"properties":{"date":"1944-06-11","unit_country":"CAN","unit_type":"Infantry","unit_size":"Brigade","unit_name":"7th Canadian Infantry Brigade"}},{"type":"Feature","geometry":{"type":"Point","coordinates":[-0.48438,49.23178]},"properties":{"date":"1944-06-11","unit_country":"CAN","unit_type":"Infantry","unit_size":"Battalion","unit_name":"The Queen?s Own Rifles of Canadaÿ"}},{"type":"Feature","geometry":{"type":"Point","coordinates":[-0.41689,49.23621]},"properties":{"date":"1944-06-11","unit_country":"CAN","unit_type":"Infantry","unit_size":"Battalion","unit_name":"The North Nova Scotia Highlanders"}},{"type":"Feature","geometry":{"type":"Point","coordinates":[-0.45196,49.23888]},"properties":{"date":"1944-06-11","unit_country":"CAN","unit_type":"Infantry","unit_size":"Battalion","unit_name":"North Shore (New Brunswick) Regiment"}},{"type":"Feature","geometry":{"type":"Point","coordinates":[-0.53871,49.21381]},"properties":{"date":"1944-06-11","unit_country":"CAN","unit_type":"Infantry","unit_size":"Battalion","unit_name":"The Canadian Scottish Regiment"}},{"type":"Feature","geometry":{"type":"Point","coordinates":[-0.5086,49.21013]},"properties":{"date":"1944-06-11","unit_country":"CAN","unit_type":"Infantry","unit_size":"Battalion","unit_name":"The Regina Rifles"}},{"type":"Feature","geometry":{"type":"Point","coordinates":[-0.52831,49.22154]},"properties":{"date":"1944-06-11","unit_country":"CAN","unit_type":"Infantry","unit_size":"Battalion","unit_name":"The Royal Winnipeg Rifles"}},{"type":"Feature","geometry":{"type":"Point","coordinates":[-0.41626,49.23396]},"properties":{"date":"1944-06-11","unit_country":"CAN","unit_type":"Infantry","unit_size":"Battalion","unit_name":"Highland Light Infantry of Canada"}},{"type":"Feature","geometry":{"type":"Point","coordinates":[-0.43987,49.23102]},"properties":{"date":"1944-06-11","unit_country":"CAN","unit_type":"Infantry","unit_size":"Battalion","unit_name":"Stormont, Dundas & Glengarry Highlanders"}},{"type":"Feature","geometry":{"type":"Point","coordinates":[-0.48502,49.2508]},"properties":{"date":"1944-06-11","unit_country":"CAN","unit_type":"Armoured","unit_size":"Battalion","unit_name":"6th Canadian Armoured Regiment (1st Hussars)ÿ"}},{"type":"Feature","geometry":{"type":"Point","coordinates":[-0.49032,49.23213]},"properties":{"date":"1944-06-11","unit_country":"CAN","unit_type":"Artillery","unit_size":"Battalion","unit_name":"12th Field Regiment Royal Canadian Artillery"}},{"type":"Feature","geometry":{"type":"Point","coordinates":[-0.46562,49.24388]},"properties":{"date":"1944-06-11","unit_country":"CAN","unit_type":"Artillery","unit_size":"Battalion","unit_name":"13th Field Regiment Royal Canadian Artillery"}},{"type":"Feature","geometry":{"type":"Point","coordinates":[-0.48253,49.23193]},"properties":{"date":"1944-06-11","unit_country":"CAN","unit_type":"Artillery","unit_size":"Battalion","unit_name":"14th Field Regiment Royal Canadian Artillery"}},{"type":"Feature","geometry":{"type":"Point","coordinates":[-0.51461,49.23053]},"properties":{"date":"1944-06-11","unit_country":"CAN","unit_type":"Armoured","unit_size":"Battalion","unit_name":"27th Canadian Armoured Regiment (The Sherbrooke Fusiliers)ÿ"}},{"type":"Feature","geometry":{"type":"Point","coordinates":[-0.41941,49.27224]},"properties":{"date":"1944-06-11","unit_country":"CAN","unit_type":"Artillery","unit_size":"Battalion","unit_name":"19th Field Regiment Royal Canadian Artillery"}},{"type":"Feature","geometry":{"type":"Point","coordinates":[-0.49546,49.22748]},"properties":{"date":"1944-06-11","unit_country":"CAN","unit_type":"Armoured","unit_size":"Brigade","unit_name":"2nd Canadian Armoured Brigade"}},{"type":"Feature","geometry":{"type":"Point","coordinates":[-0.19691,49.24137]},"properties":{"date":"1944-06-11","unit_country":"CAN","unit_type":"Airborne","unit_size":"Battalion","unit_name":"1st Canadian Parachute Battalion"}},{"type":"Feature","geometry":{"type":"Point","coordinates":[-0.47625,49.24845]},"properties":{"date":"1944-06-11","unit_country":"CAN","unit_type":"Engineer","unit_size":"Company","unit_name":"6th Field Company, Royal Canadian Engineers"}},{"type":"Feature","geometry":{"type":"Point","coordinates":[-0.48636,49.25082]},"properties":{"date":"1944-06-11","unit_country":"CAN","unit_type":"Infantry","unit_size":"Division","unit_name":"3rd Canadian Infantry Division"}},{"type":"Feature","geometry":{"type":"Point","coordinates":[-0.46294,49.24201]},"properties":{"date":"1944-06-11","unit_country":"CAN","unit_type":"Armoured","unit_size":"Battalion","unit_name":"10th Canadian Armoured Regiment (The Fort Garry Horse)"}},{"type":"Feature","geometry":{"type":"Point","coordinates":[-0.49007,49.22604]},"properties":{"date":"1944-06-11","unit_country":"Can","unit_type":"Infantry","unit_size":"Battalion","unit_name":"Regiment de la Chaudiere"}},{"type":"Feature","geometry":{"type":"Point","coordinates":[-0.41576,49.26403]},"properties":{"date":"1944-06-11","unit_country":"CAN","unit_type":"Engineer","unit_size":"Company","unit_name":"18th Field Company Royal Canadian Engineers"}},{"type":"Feature","geometry":{"type":"Point","coordinates":[-0.46531,49.30518]},"properties":{"date":"1944-06-11","unit_country":"CAN","unit_type":"Engineer","unit_size":"Company","unit_name":"5th Field Company Royal Canadian Engineers"}},{"type":"Feature","geometry":{"type":"Point","coordinates":[-0.48662,49.25176]},"properties":{"date":"1944-06-11","unit_country":"CAN","unit_type":"Engineer","unit_size":"Company","unit_name":"16th Field Company Royal Canadian Engineers"}}]}