{"type":"FeatureCollection","features":[{"type":"Feature","geometry":{"type":"Point","coordinates":[-0.67055,49.08759]},"properties":{"date":"1944-08-30","unit_country":"GB","unit_type":"Infantry","unit_size":"Army Group","unit_name":"Twenty-First Army Group"}},{"type":"Feature","geometry":{"type":"Point","coordinates":[-0.80023,48.90104]},"properties":{"date":"1944-08-30","unit_country":"GB","unit_type":"Infantry","unit_size":"Division","unit_name":"3rd Infantry Division"}},{"type":"Feature","geometry":{"type":"Point","coordinates":[-0.61401,48.74192]},"properties":{"date":"1944-08-30","unit_country":"GB","unit_type":"Infantry","unit_size":"Corp","unit_name":"Eigth Corps"}},{"type":"Feature","geometry":{"type":"Point","coordinates":[0.28777,49.26464]},"properties":{"date":"1944-08-30","unit_country":"GB","unit_type":"Airborne","unit_size":"Division","unit_name":"6th Airborne Division"}},{"type":"Feature","geometry":{"type":"Point","coordinates":[0.45932,49.17553]},"properties":{"date":"1944-08-30","unit_country":"CAN","unit_type":"Infantry","unit_size":"Army","unit_name":"First Army"}},{"type":"Feature","geometry":{"type":"Point","coordinates":[0.63778,49.40337]},"properties":{"date":"1944-08-30","unit_country":"GB","unit_type":"Infantry","unit_size":"Division","unit_name":"49th Infantry Division"}},{"type":"Feature","geometry":{"type":"Point","coordinates":[0.7865,49.376]},"properties":{"date":"1944-08-30","unit_country":"GB","unit_type":"Infantry","unit_size":"Division","unit_name":"51st Infantry Division"}},{"type":"Feature","geometry":{"type":"Point","coordinates":[0.75735,49.41051]},"properties":{"date":"1944-08-30","unit_country":"GB","unit_type":"Infantry","unit_size":"Corp","unit_name":"First Corps"}},{"type":"Feature","geometry":{"type":"Point","coordinates":[0.83528,49.19457]},"properties":{"date":"1944-08-30","unit_country":"CAN","unit_type":"Infantry","unit_size":"Corp","unit_name":"Second Corps"}},{"type":"Feature","geometry":{"type":"Point","coordinates":[0.13655,48.92545]},"properties":{"date":"1944-08-30","unit_country":"POL","unit_type":"Armoured","unit_size":"Division","unit_name":"1st Armoured Division"}},{"type":"Feature","geometry":{"type":"Point","coordinates":[0.89964,49.07369]},"properties":{"date":"1944-08-30","unit_country":"GB","unit_type":"Armoured","unit_size":"Division","unit_name":"7th Armoured Division"}},{"type":"Feature","geometry":{"type":"Point","coordinates":[1.08393,49.18684]},"properties":{"date":"1944-08-30","unit_country":"GB","unit_type":"Infantry","unit_size":"Division","unit_name":"7th Infantry Division"}},{"type":"Feature","geometry":{"type":"Point","coordinates":[0.61577,48.90427]},"properties":{"date":"1944-08-30","unit_country":"GB","unit_type":"Infantry","unit_size":"Division","unit_name":"53rd Infantry Division"}},{"type":"Feature","geometry":{"type":"Point","coordinates":[1.3772,49.24049]},"properties":{"date":"1944-08-30","unit_country":"GB","unit_type":"Infantry","unit_size":"Division","unit_name":"15th Infantry Division"}},{"type":"Feature","geometry":{"type":"Point","coordinates":[1.35317,49.1239]},"properties":{"date":"1944-08-30","unit_country":"GB","unit_type":"Infantry","unit_size":"Division","unit_name":"43rd Infantry Division"}},{"type":"Feature","geometry":{"type":"Point","coordinates":[1.6073,49.11129]},"properties":{"date":"1944-08-30","unit_country":"GB","unit_type":"Infantry","unit_size":"Division","unit_name":"50th Infantry Division"}},{"type":"Feature","geometry":{"type":"Point","coordinates":[1.62276,49.20623]},"properties":{"date":"1944-08-30","unit_country":"GB","unit_type":"Armoured","unit_size":"Division","unit_name":"Guards Division"}},{"type":"Feature","geometry":{"type":"Point","coordinates":[1.53615,49.09963]},"properties":{"date":"1944-08-30","unit_country":"GB","unit_type":"Infantry","unit_size":"Corp","unit_name":"Thirty Corps"}},{"type":"Feature","geometry":{"type":"Point","coordinates":[1.92448,48.98922]},"properties":{"date":"1944-08-30","unit_country":"USA","unit_type":"Infantry","unit_size":"Corp","unit_name":"Nineteenth Corps"}},{"type":"Feature","geometry":{"type":"Point","coordinates":[2.34993,48.94449]},"properties":{"date":"1944-08-30","unit_country":"USA","unit_type":"Infantry","unit_size":"Corp","unit_name":"Fifth Corps"}},{"type":"Feature","geometry":{"type":"Point","coordinates":[3.03378,48.66942]},"properties":{"date":"1944-08-30","unit_country":"USA","unit_type":"Infantry","unit_size":"Corp","unit_name":"Fifteenth Corps"}},{"type":"Feature","geometry":{"type":"Point","coordinates":[3.14086,48.98446]},"properties":{"date":"1944-08-30","unit_country":"USA","unit_type":"Infantry","unit_size":"Corp","unit_name":"Eighth Corps"}},{"type":"Feature","geometry":{"type":"Point","coordinates":[3.69194,48.29775]},"properties":{"date":"1944-08-30","unit_country":"USA","unit_type":"Infantry","unit_size":"Corp","unit_name":"Twelfth Corps"}},{"type":"Feature","geometry":{"type":"Point","coordinates":[2.26902,48.051]},"properties":{"date":"1944-08-30","unit_country":"USA","unit_type":"Infantry","unit_size":"Army","unit_name":"Third Army"}},{"type":"Feature","geometry":{"type":"Point","coordinates":[1.1602,48.62707]},"properties":{"date":"1944-08-30","unit_country":"USA","unit_type":"Infantry","unit_size":"Army","unit_name":"First Army"}},{"type":"Feature","geometry":{"type":"Point","coordinates":[0.28693,48.80434]},"properties":{"date":"1944-08-30","unit_country":"GB","unit_type":"Infantry","unit_size":"Army","unit_name":"Second Army"}},{"type":"Feature","geometry":{"type":"Point","coordinates":[1.74792,49.07679]},"properties":{"date":"1944-08-30","unit_country":"USA","unit_type":"Infantry","unit_size":"Division","unit_name":"79th Infantry Division"}},{"type":"Feature","geometry":{"type":"Point","coordinates":[1.9237,49.09552]},"properties":{"date":"1944-08-30","unit_country":"USA","unit_type":"Infantry","unit_size":"Division","unit_name":"30th Infantry Division"}},{"type":"Feature","geometry":{"type":"Point","coordinates":[2.35891,48.97512]},"properties":{"date":"1944-08-30","unit_country":"FRE","unit_type":"Armoured","unit_size":"Division","unit_name":"2nd Armoured Division"}},{"type":"Feature","geometry":{"type":"Point","coordinates":[2.42863,49.00606]},"properties":{"date":"1944-08-30","unit_country":"USA","unit_type":"Infantry","unit_size":"Division","unit_name":"28th Infantry Division"}},{"type":"Feature","geometry":{"type":"Point","coordinates":[2.67228,49.027]},"properties":{"date":"1944-08-30","unit_country":"USA","unit_type":"Infantry","unit_size":"Division","unit_name":"4th Infantry Division"}},{"type":"Feature","geometry":{"type":"Point","coordinates":[3.04848,49.14978]},"properties":{"date":"1944-08-30","unit_country":"USA","unit_type":"Infantry","unit_size":"Division","unit_name":"1st Infantry Division"}},{"type":"Feature","geometry":{"type":"Point","coordinates":[3.29832,49.08315]},"properties":{"date":"1944-08-30","unit_country":"USA","unit_type":"Infantry","unit_size":"Division","unit_name":"9th Infantry Division"}},{"type":"Feature","geometry":{"type":"Point","coordinates":[3.51366,49.39772]},"properties":{"date":"1944-08-30","unit_country":"USA","unit_type":"Armoured","unit_size":"Division","unit_name":"3rd Armoured Division"}},{"type":"Feature","geometry":{"type":"Point","coordinates":[3.18625,48.05737]},"properties":{"date":"1944-08-30","unit_country":"USA","unit_type":"Infantry","unit_size":"Division","unit_name":"35th Infantry Division"}},{"type":"Feature","geometry":{"type":"Point","coordinates":[0.43137,49.50497]},"properties":{"date":"1944-08-30","unit_country":"GMN","unit_type":"Infantry","unit_size":"Division","unit_name":"711th Infantry Division"}},{"type":"Feature","geometry":{"type":"Point","coordinates":[0.70453,49.55815]},"properties":{"date":"1944-08-30","unit_country":"GMN","unit_type":"Infantry","unit_size":"Division","unit_name":"272nd Infantry Division"}},{"type":"Feature","geometry":{"type":"Point","coordinates":[0.80268,49.51496]},"properties":{"date":"1944-08-30","unit_country":"GMN","unit_type":"Infantry","unit_size":"Division","unit_name":"346th Infantry Division"}},{"type":"Feature","geometry":{"type":"Point","coordinates":[0.86241,49.45179]},"properties":{"date":"1944-08-30","unit_country":"GMN","unit_type":"Infantry","unit_size":"Division","unit_name":"85th Infantry Division"}},{"type":"Feature","geometry":{"type":"Point","coordinates":[1.17078,49.46666]},"properties":{"date":"1944-08-30","unit_country":"GMN","unit_type":"Armoured","unit_size":"Division","unit_name":"2nd SS Panzer Division"}},{"type":"Feature","geometry":{"type":"Point","coordinates":[1.31736,49.41645]},"properties":{"date":"1944-08-30","unit_country":"GMN","unit_type":"Armoured","unit_size":"Division","unit_name":"10th SS Panzer Division"}},{"type":"Feature","geometry":{"type":"Point","coordinates":[1.41492,49.37481]},"properties":{"date":"1944-08-30","unit_country":"GMN","unit_type":"Armoured","unit_size":"Division","unit_name":"12th SS Panzer Division"}},{"type":"Feature","geometry":{"type":"Point","coordinates":[1.14104,49.53043]},"properties":{"date":"1944-08-30","unit_country":"GMN","unit_type":"Armoured","unit_size":"Division","unit_name":"9th SS Panzer Division"}},{"type":"Feature","geometry":{"type":"Point","coordinates":[1.46893,49.33698]},"properties":{"date":"1944-08-30","unit_country":"GMN","unit_type":"Infantry","unit_size":"Division","unit_name":"17th Luftwaffe Division"}},{"type":"Feature","geometry":{"type":"Point","coordinates":[0.96972,49.43168]},"properties":{"date":"1944-08-30","unit_country":"GMN","unit_type":"Infantry","unit_size":"Division","unit_name":"331st Infantry Division"}},{"type":"Feature","geometry":{"type":"Point","coordinates":[1.7547,49.17875]},"properties":{"date":"1944-08-30","unit_country":"GMN","unit_type":"Infantry","unit_size":"Division","unit_name":"49th Infantry Division"}},{"type":"Feature","geometry":{"type":"Point","coordinates":[2.02882,49.21468]},"properties":{"date":"1944-08-30","unit_country":"GMN","unit_type":"Infantry","unit_size":"Division","unit_name":"18th Luftwaffe Division"}},{"type":"Feature","geometry":{"type":"Point","coordinates":[2.11971,49.13699]},"properties":{"date":"1944-08-30","unit_country":"GMN","unit_type":"Infantry","unit_size":"Division","unit_name":"47th Luftwaffe Division"}},{"type":"Feature","geometry":{"type":"Point","coordinates":[3.08732,49.30676]},"properties":{"date":"1944-08-30","unit_country":"GMN","unit_type":"Infantry","unit_size":"Division","unit_name":"348th Luftwaffe Division"}},{"type":"Feature","geometry":{"type":"Point","coordinates":[2.80369,49.46095]},"properties":{"date":"1944-08-30","unit_country":"GMN","unit_type":"Armoured","unit_size":"Division","unit_name":"9th Panzer Division"}},{"type":"Feature","geometry":{"type":"Point","coordinates":[1.83549,49.48355]},"properties":{"date":"1944-08-30","unit_country":"GMN","unit_type":"Armoured","unit_size":"Division","unit_name":"21st Panzer Division"}},{"type":"Feature","geometry":{"type":"Point","coordinates":[2.60905,49.42431]},"properties":{"date":"1944-08-30","unit_country":"GMN","unit_type":"Armoured","unit_size":"Division","unit_name":"116th Panzer Division"}},{"type":"Feature","geometry":{"type":"Point","coordinates":[1.32533,49.51592]},"properties":{"date":"1944-08-30","unit_country":"GMN","unit_type":"Airborne","unit_size":"Division","unit_name":"6th Fallschirmjäger Division"}},{"type":"Feature","geometry":{"type":"Point","coordinates":[2.07177,49.29915]},"properties":{"date":"1944-08-30","unit_country":"USA","unit_type":"Armoured","unit_size":"Division","unit_name":"2nd Armoured Division"}},{"type":"Feature","geometry":{"type":"Point","coordinates":[1.71675,48.92081]},"properties":{"date":"1944-08-30","unit_country":"USA","unit_type":"Armoured","unit_size":"Division","unit_name":"5th Armoured Division"}},{"type":"Feature","geometry":{"type":"Point","coordinates":[0.98542,49.48474]},"properties":{"date":"1944-08-30","unit_country":"GMN","unit_type":"Infantry","unit_size":"Division","unit_name":"344th Infantry Division"}},{"type":"Feature","geometry":{"type":"Point","coordinates":[-0.76335,48.02219]},"properties":{"date":"1944-08-30","unit_country":"USA","unit_type":"Infantry","unit_size":"Army Group","unit_name":"Twelfth Army Group"}},{"type":"Feature","geometry":{"type":"Point","coordinates":[1.66313,49.33862]},"properties":{"date":"1944-08-30","unit_country":"GB","unit_type":"Armoured","unit_size":"Division","unit_name":"11th Armoured Division"}},{"type":"Feature","geometry":{"type":"Point","coordinates":[1.21105,49.32048]},"properties":{"date":"1944-08-30","unit_country":"CAN","unit_type":"Infantry","unit_size":"Brigade","unit_name":"7th Canadian Infantry Brigade"}},{"type":"Feature","geometry":{"type":"Point","coordinates":[1.43732,49.59381]},"properties":{"date":"1944-08-30","unit_country":"CAN","unit_type":"Infantry","unit_size":"Brigade","unit_name":"8th Canadian Infantry Brigade"}},{"type":"Feature","geometry":{"type":"Point","coordinates":[1.16509,49.37417]},"properties":{"date":"1944-08-30","unit_country":"CAN","unit_type":"Infantry","unit_size":"Brigade","unit_name":"9th Canadian Infantry Brigade"}},{"type":"Feature","geometry":{"type":"Point","coordinates":[1.12939,49.33419]},"properties":{"date":"1944-08-30","unit_country":"CAN","unit_type":"Infantry","unit_size":"Brigade","unit_name":"4th Canadian Infantry Brigade"}},{"type":"Feature","geometry":{"type":"Point","coordinates":[1.35562,49.58676]},"properties":{"date":"1944-08-30","unit_country":"CAN","unit_type":"Infantry","unit_size":"Brigade","unit_name":"10th Canadian Infantry Brigade"}},{"type":"Feature","geometry":{"type":"Point","coordinates":[1.27342,49.48465]},"properties":{"date":"1944-08-30","unit_country":"CAN","unit_type":"Armoured","unit_size":"Brigade","unit_name":"4th Canadian Armoured Brigade"}},{"type":"Feature","geometry":{"type":"Point","coordinates":[0.79975,49.25171]},"properties":{"date":"1944-08-30","unit_country":"CAN","unit_type":"Infantry","unit_size":"Brigade","unit_name":"6th Canadian Infantry Brigade"}},{"type":"Feature","geometry":{"type":"Point","coordinates":[0.8761,49.28722]},"properties":{"date":"1944-08-30","unit_country":"CAN","unit_type":"Infantry","unit_size":"Division","unit_name":"2nd Canadian Infantry Division"}},{"type":"Feature","geometry":{"type":"Point","coordinates":[0.91251,49.26507]},"properties":{"date":"1944-08-30","unit_country":"CAN","unit_type":"Infantry","unit_size":"Battalion","unit_name":"The Queen?s Own Rifles of Canadaÿ"}},{"type":"Feature","geometry":{"type":"Point","coordinates":[1.14014,49.39818]},"properties":{"date":"1944-08-30","unit_country":"CAN","unit_type":"Infantry","unit_size":"Battalion","unit_name":"The North Nova Scotia Highlanders"}},{"type":"Feature","geometry":{"type":"Point","coordinates":[1.31803,49.65772]},"properties":{"date":"1944-08-30","unit_country":"CAN","unit_type":"Infantry","unit_size":"Battalion","unit_name":"North Shore (New Brunswick) Regiment"}},{"type":"Feature","geometry":{"type":"Point","coordinates":[1.20344,49.39712]},"properties":{"date":"1944-08-30","unit_country":"CAN","unit_type":"Infantry","unit_size":"Battalion","unit_name":"The Canadian Scottish Regiment"}},{"type":"Feature","geometry":{"type":"Point","coordinates":[1.17517,49.34862]},"properties":{"date":"1944-08-30","unit_country":"CAN","unit_type":"Armoured","unit_size":"Division","unit_name":"4th Armoured Division"}},{"type":"Feature","geometry":{"type":"Point","coordinates":[1.13051,49.31156]},"properties":{"date":"1944-08-30","unit_country":"CAN","unit_type":"Infantry","unit_size":"Battalion","unit_name":"The Regina Rifles"}},{"type":"Feature","geometry":{"type":"Point","coordinates":[1.20176,49.38287]},"properties":{"date":"1944-08-30","unit_country":"CAN","unit_type":"Infantry","unit_size":"Battalion","unit_name":"The Royal Winnipeg Rifles"}},{"type":"Feature","geometry":{"type":"Point","coordinates":[1.31224,49.50602]},"properties":{"date":"1944-08-30","unit_country":"CAN","unit_type":"Armoured","unit_size":"Battalion","unit_name":"21st Armoured Regiment (The Governor General?s Foot Guards)"}},{"type":"Feature","geometry":{"type":"Point","coordinates":[1.16793,49.40474]},"properties":{"date":"1944-08-30","unit_country":"CAN","unit_type":"Infantry","unit_size":"Battalion","unit_name":"Highland Light Infantry of Canada"}},{"type":"Feature","geometry":{"type":"Point","coordinates":[1.12835,49.42039]},"properties":{"date":"1944-08-30","unit_country":"CAN","unit_type":"Infantry","unit_size":"Battalion","unit_name":"Stormont, Dundas & Glengarry Highlanders"}},{"type":"Feature","geometry":{"type":"Point","coordinates":[1.08361,49.24983]},"properties":{"date":"1944-08-30","unit_country":"CAN","unit_type":"Armoured","unit_size":"Battalion","unit_name":"6th Canadian Armoured Regiment (1st Hussars)ÿ"}},{"type":"Feature","geometry":{"type":"Point","coordinates":[1.16873,49.40274]},"properties":{"date":"1944-08-30","unit_country":"CAN","unit_type":"Reconnaissance","unit_size":"Battalion","unit_name":"7th Reconnaissance Regiment (17th Duke of York's Royal Canadian Hussars)"}},{"type":"Feature","geometry":{"type":"Point","coordinates":[1.21412,49.42697]},"properties":{"date":"1944-08-30","unit_country":"CAN","unit_type":"Artillery","unit_size":"Battalion","unit_name":"12th Field Regiment Royal Canadian Artillery"}},{"type":"Feature","geometry":{"type":"Point","coordinates":[1.20567,49.4359]},"properties":{"date":"1944-08-30","unit_country":"CAN","unit_type":"Artillery","unit_size":"Battalion","unit_name":"13th Field Regiment Royal Canadian Artillery"}},{"type":"Feature","geometry":{"type":"Point","coordinates":[1.20417,49.43751]},"properties":{"date":"1944-08-30","unit_country":"CAN","unit_type":"Artillery","unit_size":"Battalion","unit_name":"14th Field Regiment Royal Canadian Artillery"}},{"type":"Feature","geometry":{"type":"Point","coordinates":[1.19531,49.37871]},"properties":{"date":"1944-08-30","unit_country":"CAN","unit_type":"Armoured","unit_size":"Battalion","unit_name":"22nd Armoured Regiment (Canadian Grenadier Guards)"}},{"type":"Feature","geometry":{"type":"Point","coordinates":[1.29816,49.50332]},"properties":{"date":"1944-08-30","unit_country":"CAN","unit_type":"Mechanized","unit_size":"Battalion","unit_name":"The Lake Superior Regiment"}},{"type":"Feature","geometry":{"type":"Point","coordinates":[1.42166,49.55592]},"properties":{"date":"1944-08-30","unit_country":"CAN","unit_type":"Infantry","unit_size":"Battalion","unit_name":"The Lincoln & Welland Regiment"}},{"type":"Feature","geometry":{"type":"Point","coordinates":[1.30032,49.47628]},"properties":{"date":"1944-08-30","unit_country":"CAN","unit_type":"Infantry","unit_size":"Battalion","unit_name":"The Algonquin Regiment"}},{"type":"Feature","geometry":{"type":"Point","coordinates":[1.2689,49.47495]},"properties":{"date":"1944-08-30","unit_country":"CAN","unit_type":"Infantry","unit_size":"Battalion","unit_name":"The Argyll & Sutherland Highlanders of Canada (Princess Louise's)"}},{"type":"Feature","geometry":{"type":"Point","coordinates":[0.92844,49.30242]},"properties":{"date":"1944-08-30","unit_country":"CAN","unit_type":"Armoured","unit_size":"Battalion","unit_name":"27th Canadian Armoured Regiment (The Sherbrooke Fusiliers)ÿ"}},{"type":"Feature","geometry":{"type":"Point","coordinates":[1.21105,49.32048]},"properties":{"date":"1944-08-30","unit_country":"CAN","unit_type":"Infantry","unit_size":"Brigade","unit_name":"5th Canadian Infantry Brigade"}},{"type":"Feature","geometry":{"type":"Point","coordinates":[-0.6407,49.3209]},"properties":{"date":"1944-08-30","unit_country":"CAN","unit_type":"Artillery","unit_size":"Battalion","unit_name":"19th Field Regiment Royal Canadian Artillery"}},{"type":"Feature","geometry":{"type":"Point","coordinates":[0.92915,49.26622]},"properties":{"date":"1944-08-30","unit_country":"CAN","unit_type":"Infantry","unit_size":"Battalion","unit_name":"The Royal Regiment of Canada"}},{"type":"Feature","geometry":{"type":"Point","coordinates":[1.08263,49.2485]},"properties":{"date":"1944-08-30","unit_country":"CAN","unit_type":"Armoured","unit_size":"Brigade","unit_name":"2nd Canadian Armoured Brigade"}},{"type":"Feature","geometry":{"type":"Point","coordinates":[1.29485,49.45165]},"properties":{"date":"1944-08-30","unit_country":"CAN","unit_type":"Artillery","unit_size":"Battalion","unit_name":"15th Field Regiment, Royal Canadian Artillery"}},{"type":"Feature","geometry":{"type":"Point","coordinates":[1.29928,49.47565]},"properties":{"date":"1944-08-30","unit_country":"CAN","unit_type":"Artillery","unit_size":"Battalion","unit_name":"23rd Field Regiment, Royal Canadian Artillery"}},{"type":"Feature","geometry":{"type":"Point","coordinates":[1.05796,49.59644]},"properties":{"date":"1944-08-30","unit_country":"CAN","unit_type":"Infantry","unit_size":"Battalion","unit_name":"Essex Scottish Regiment"}},{"type":"Feature","geometry":{"type":"Point","coordinates":[1.15113,49.42317]},"properties":{"date":"1944-08-30","unit_country":"CAN","unit_type":"Infantry","unit_size":"Battalion","unit_name":"The Calgary Highlanders"}},{"type":"Feature","geometry":{"type":"Point","coordinates":[0.93864,49.26687]},"properties":{"date":"1944-08-30","unit_country":"CAN","unit_type":"Infantry","unit_size":"Battalion","unit_name":"Royal Hamilton Light Infantry"}},{"type":"Feature","geometry":{"type":"Point","coordinates":[1.28871,49.46653]},"properties":{"date":"1944-08-30","unit_country":"CAN","unit_type":"Reconnaissance","unit_size":"Battalion","unit_name":"29th Reconnaissance Regiment (The South Alberta Regiment)"}},{"type":"Feature","geometry":{"type":"Point","coordinates":[0.95061,49.33993]},"properties":{"date":"1944-08-30","unit_country":"CAN","unit_type":"Infantry","unit_size":"Battalion","unit_name":"Queen's Own Cameron Highlanders of Canada"}},{"type":"Feature","geometry":{"type":"Point","coordinates":[1.01262,49.36917]},"properties":{"date":"1944-08-30","unit_country":"CAN","unit_type":"Infantry","unit_size":"Battalion","unit_name":"Le Regiment de Maisonneuve"}},{"type":"Feature","geometry":{"type":"Point","coordinates":[0.91554,49.3417]},"properties":{"date":"1944-08-30","unit_country":"CAN","unit_type":"Infantry","unit_size":"Battalion","unit_name":"Les Fusiliers Mont-Royal"}},{"type":"Feature","geometry":{"type":"Point","coordinates":[1.13411,49.34146]},"properties":{"date":"1944-08-30","unit_country":"CAN","unit_type":"Infantry","unit_size":"Battalion","unit_name":"The Black Watch (Royal Highalnders) of Canada"}},{"type":"Feature","geometry":{"type":"Point","coordinates":[0.95799,49.33916]},"properties":{"date":"1944-08-30","unit_country":"CAN","unit_type":"Infantry","unit_size":"Battalion","unit_name":"The South Sasketchewan Regiment"}},{"type":"Feature","geometry":{"type":"Point","coordinates":[1.32633,49.39047]},"properties":{"date":"1944-08-30","unit_country":"CAN","unit_type":"Armoured","unit_size":"Battalion","unit_name":"28th Armoured Regiment (The British Columbia Regiment, Duke of Connaught's Own Rifles)"}},{"type":"Feature","geometry":{"type":"Point","coordinates":[0.36946,49.37506]},"properties":{"date":"1944-08-30","unit_country":"CAN","unit_type":"Airborne","unit_size":"Battalion","unit_name":"1st Canadian Parachute Battalion"}},{"type":"Feature","geometry":{"type":"Point","coordinates":[1.19768,49.38297]},"properties":{"date":"1944-08-30","unit_country":"CAN","unit_type":"Engineer","unit_size":"Company","unit_name":"6th Field Company, Royal Canadian Engineers"}},{"type":"Feature","geometry":{"type":"Point","coordinates":[1.14871,49.35695]},"properties":{"date":"1944-08-30","unit_country":"CAN","unit_type":"Infantry","unit_size":"Division","unit_name":"3rd Canadian Infantry Division"}},{"type":"Feature","geometry":{"type":"Point","coordinates":[1.15172,49.39536]},"properties":{"date":"1944-08-30","unit_country":"CAN","unit_type":"Armoured","unit_size":"Battalion","unit_name":"10th Canadian Armoured Regiment (The Fort Garry Horse)"}},{"type":"Feature","geometry":{"type":"Point","coordinates":[1.17225,49.3886]},"properties":{"date":"1944-08-30","unit_country":"CAN","unit_type":"Artillery","unit_size":"Battalion","unit_name":"5th Field Regiment, Royal Canadian Artillery"}},{"type":"Feature","geometry":{"type":"Point","coordinates":[0.92801,49.2994]},"properties":{"date":"1944-08-30","unit_country":"CAN","unit_type":"Artillery","unit_size":"Battalion","unit_name":"6th Field Regiment, Royal Canadian Artillery"}},{"type":"Feature","geometry":{"type":"Point","coordinates":[0.91337,49.28402]},"properties":{"date":"1944-08-30","unit_country":"CAN","unit_type":"Artillery","unit_size":"Battalion","unit_name":"4th Field Regiment, Royal Canadian Artillery"}},{"type":"Feature","geometry":{"type":"Point","coordinates":[1.05114,49.67155]},"properties":{"date":"1944-08-30","unit_country":"CAN","unit_type":"Reconnaissance","unit_size":"Battalion","unit_name":"8th Reconnaissance Regiment (14th Canadian Hussars)"}},{"type":"Feature","geometry":{"type":"Point","coordinates":[1.21984,49.45198]},"properties":{"date":"1944-08-30","unit_country":"Can","unit_type":"Infantry","unit_size":"Battalion","unit_name":"Regiment de la Chaudiere"}},{"type":"Feature","geometry":{"type":"Point","coordinates":[1.17248,49.39759]},"properties":{"date":"1944-08-30","unit_country":"CAN","unit_type":"Engineer","unit_size":"Company","unit_name":"18th Field Company Royal Canadian Engineers"}},{"type":"Feature","geometry":{"type":"Point","coordinates":[0.86441,49.23307]},"properties":{"date":"1944-08-30","unit_country":"CAN","unit_type":"Engineer","unit_size":"Company","unit_name":"5th Field Company Royal Canadian Engineers"}},{"type":"Feature","geometry":{"type":"Point","coordinates":[1.13337,49.32225]},"properties":{"date":"1944-08-30","unit_country":"CAN","unit_type":"Engineer","unit_size":"Company","unit_name":"16th Field Company Royal Canadian Engineers"}},{"type":"Feature","geometry":{"type":"Point","coordinates":[1.04301,49.61916]},"properties":{"date":"1944-08-30","unit_country":"CAN","unit_type":"Infantry","unit_size":"Company","unit_name":"Toronto Scottish Regiment"}},{"type":"Feature","geometry":{"type":"Point","coordinates":[1.25504,49.38467]},"properties":{"date":"1944-08-30","unit_country":"CAN","unit_type":"Engineer","unit_size":"Company","unit_name":"6th Field Park Squadron"}},{"type":"Feature","geometry":{"type":"Point","coordinates":[1.13722,49.33278]},"properties":{"date":"1944-08-30","unit_country":"CAN","unit_type":"Infantry","unit_size":"Battalion","unit_name":"The Cameron Highlanders of Ottawa (Duke of Edinburgh's Own)"}}]}