{"type":"FeatureCollection","features":[{"type":"Feature","geometry":{"type":"Point","coordinates":[-0.82161,49.22217]},"properties":{"date":"1944-07-30","unit_country":"GB","unit_type":"Infantry","unit_size":"Army Group","unit_name":"Twenty-First Army Group"}},{"type":"Feature","geometry":{"type":"Point","coordinates":[-0.26292,49.23322]},"properties":{"date":"1944-07-30","unit_country":"GB","unit_type":"Airborne","unit_size":"Division","unit_name":"6th Airborne Division"}},{"type":"Feature","geometry":{"type":"Point","coordinates":[-0.25436,49.16332]},"properties":{"date":"1944-07-30","unit_country":"GB","unit_type":"Infantry","unit_size":"Division","unit_name":"49th Infantry Division"}},{"type":"Feature","geometry":{"type":"Point","coordinates":[-0.34625,49.25905]},"properties":{"date":"1944-07-30","unit_country":"GB","unit_type":"Infantry","unit_size":"Division","unit_name":"51st Infantry Division"}},{"type":"Feature","geometry":{"type":"Point","coordinates":[-0.45901,49.27218]},"properties":{"date":"1944-07-30","unit_country":"CAN","unit_type":"Infantry","unit_size":"Corp","unit_name":"Second Corps"}},{"type":"Feature","geometry":{"type":"Point","coordinates":[-0.13262,49.15876]},"properties":{"date":"1944-07-30","unit_country":"GMN","unit_type":"Infantry","unit_size":"Division","unit_name":"16th Luftwaffe Division"}},{"type":"Feature","geometry":{"type":"Point","coordinates":[-0.69246,49.24191]},"properties":{"date":"1944-07-30","unit_country":"GB","unit_type":"Armoured","unit_size":"Division","unit_name":"7th Armoured Division"}},{"type":"Feature","geometry":{"type":"Point","coordinates":[-0.47088,49.14205]},"properties":{"date":"1944-07-30","unit_country":"GB","unit_type":"Infantry","unit_size":"Division","unit_name":"53rd Infantry Division"}},{"type":"Feature","geometry":{"type":"Point","coordinates":[-0.81539,49.06373]},"properties":{"date":"1944-07-30","unit_country":"GB","unit_type":"Infantry","unit_size":"Division","unit_name":"43rd Infantry Division"}},{"type":"Feature","geometry":{"type":"Point","coordinates":[-0.71278,49.15464]},"properties":{"date":"1944-07-30","unit_country":"GB","unit_type":"Infantry","unit_size":"Division","unit_name":"50th Infantry Division"}},{"type":"Feature","geometry":{"type":"Point","coordinates":[-0.62939,49.16185]},"properties":{"date":"1944-07-30","unit_country":"GB","unit_type":"Armoured","unit_size":"Division","unit_name":"Guards Division"}},{"type":"Feature","geometry":{"type":"Point","coordinates":[-0.78255,49.22124]},"properties":{"date":"1944-07-30","unit_country":"GB","unit_type":"Infantry","unit_size":"Corp","unit_name":"Eigth Corps"}},{"type":"Feature","geometry":{"type":"Point","coordinates":[-1.51404,49.05599]},"properties":{"date":"1944-07-30","unit_country":"USA","unit_type":"Infantry","unit_size":"Corp","unit_name":"Nineteenth Corps"}},{"type":"Feature","geometry":{"type":"Point","coordinates":[-0.87398,49.17139]},"properties":{"date":"1944-07-30","unit_country":"USA","unit_type":"Infantry","unit_size":"Corp","unit_name":"Fifth Corps"}},{"type":"Feature","geometry":{"type":"Point","coordinates":[-1.25008,49.09817]},"properties":{"date":"1944-07-30","unit_country":"USA","unit_type":"Infantry","unit_size":"Corp","unit_name":"Seventh Corps"}},{"type":"Feature","geometry":{"type":"Point","coordinates":[-1.54836,49.44484]},"properties":{"date":"1944-07-30","unit_country":"USA","unit_type":"Infantry","unit_size":"Army","unit_name":"Third Army"}},{"type":"Feature","geometry":{"type":"Point","coordinates":[-1.04861,49.29788]},"properties":{"date":"1944-07-30","unit_country":"USA","unit_type":"Infantry","unit_size":"Army","unit_name":"First Army"}},{"type":"Feature","geometry":{"type":"Point","coordinates":[-1.13832,49.05464]},"properties":{"date":"1944-07-30","unit_country":"USA","unit_type":"Infantry","unit_size":"Division","unit_name":"28th Infantry Division"}},{"type":"Feature","geometry":{"type":"Point","coordinates":[-1.21849,49.09875]},"properties":{"date":"1944-07-30","unit_country":"USA","unit_type":"Infantry","unit_size":"Division","unit_name":"9th Infantry Division"}},{"type":"Feature","geometry":{"type":"Point","coordinates":[-1.29926,48.91464]},"properties":{"date":"1944-07-30","unit_country":"USA","unit_type":"Armoured","unit_size":"Division","unit_name":"3rd Armoured Division"}},{"type":"Feature","geometry":{"type":"Point","coordinates":[-0.17009,49.26975]},"properties":{"date":"1944-07-30","unit_country":"GMN","unit_type":"Infantry","unit_size":"Division","unit_name":"711th Infantry Division"}},{"type":"Feature","geometry":{"type":"Point","coordinates":[-0.34503,49.08362]},"properties":{"date":"1944-07-30","unit_country":"GMN","unit_type":"Infantry","unit_size":"Division","unit_name":"272nd Infantry Division"}},{"type":"Feature","geometry":{"type":"Point","coordinates":[-0.17188,49.20531]},"properties":{"date":"1944-07-30","unit_country":"GMN","unit_type":"Infantry","unit_size":"Division","unit_name":"346th Infantry Division"}},{"type":"Feature","geometry":{"type":"Point","coordinates":[-0.21489,49.10314]},"properties":{"date":"1944-07-30","unit_country":"GMN","unit_type":"Armoured","unit_size":"Division","unit_name":"12th SS Panzer Division"}},{"type":"Feature","geometry":{"type":"Point","coordinates":[-0.40524,49.05692]},"properties":{"date":"1944-07-30","unit_country":"GMN","unit_type":"Armoured","unit_size":"Division","unit_name":"9th SS Panzer Division"}},{"type":"Feature","geometry":{"type":"Point","coordinates":[-0.13535,49.18245]},"properties":{"date":"1944-07-30","unit_country":"GMN","unit_type":"Armoured","unit_size":"Division","unit_name":"21st Panzer Division"}},{"type":"Feature","geometry":{"type":"Point","coordinates":[-1.3421,48.97995]},"properties":{"date":"1944-07-30","unit_country":"USA","unit_type":"Armoured","unit_size":"Division","unit_name":"2nd Armoured Division"}},{"type":"Feature","geometry":{"type":"Point","coordinates":[-0.76136,49.18383]},"properties":{"date":"1944-07-30","unit_country":"GB","unit_type":"Armoured","unit_size":"Division","unit_name":"11th Armoured Division"}},{"type":"Feature","geometry":{"type":"Point","coordinates":[-1.4513,48.94156]},"properties":{"date":"1944-07-30","unit_country":"USA","unit_type":"Armoured","unit_size":"Division","unit_name":"4th Armoured Division"}},{"type":"Feature","geometry":{"type":"Point","coordinates":[-1.42482,49.11888]},"properties":{"date":"1944-07-30","unit_country":"USA","unit_type":"Infantry","unit_size":"Army Group","unit_name":"Twelfth Army Group"}},{"type":"Feature","geometry":{"type":"Point","coordinates":[-1.17538,48.88634]},"properties":{"date":"1944-07-30","unit_country":"GMN","unit_type":"Armoured","unit_size":"Division","unit_name":"Panzer Lehr Division"}},{"type":"Feature","geometry":{"type":"Point","coordinates":[-0.43763,49.08783]},"properties":{"date":"1944-07-30","unit_country":"GMN","unit_type":"Infantry","unit_size":"Division","unit_name":"271st Infantry Division"}},{"type":"Feature","geometry":{"type":"Point","coordinates":[-0.73961,49.08497]},"properties":{"date":"1944-07-30","unit_country":"GMN","unit_type":"Infantry","unit_size":"Division","unit_name":"276th Infantry Division"}},{"type":"Feature","geometry":{"type":"Point","coordinates":[-0.5634,49.07371]},"properties":{"date":"1944-07-30","unit_country":"GMN","unit_type":"Infantry","unit_size":"Division","unit_name":"277th Infantry Division"}},{"type":"Feature","geometry":{"type":"Point","coordinates":[-0.77712,48.95789]},"properties":{"date":"1944-07-30","unit_country":"GMN","unit_type":"Infantry","unit_size":"Division","unit_name":"326th Infantry Division"}},{"type":"Feature","geometry":{"type":"Point","coordinates":[-1.06434,48.91223]},"properties":{"date":"1944-07-30","unit_country":"GMN","unit_type":"Infantry","unit_size":"Division","unit_name":"266th Infantry Division"}},{"type":"Feature","geometry":{"type":"Point","coordinates":[-0.94228,48.97687]},"properties":{"date":"1944-07-30","unit_country":"GMN","unit_type":"Airborne","unit_size":"Division","unit_name":"3rd Fallschirmjäger Division"}},{"type":"Feature","geometry":{"type":"Point","coordinates":[-0.50081,49.0484]},"properties":{"date":"1944-07-30","unit_country":"GMN","unit_type":"Armoured","unit_size":"Division","unit_name":"10th SS Panzer Division"}},{"type":"Feature","geometry":{"type":"Point","coordinates":[-0.5443,49.15233]},"properties":{"date":"1944-07-30","unit_country":"GB","unit_type":"Infantry","unit_size":"Division","unit_name":"59th Infantry Division"}},{"type":"Feature","geometry":{"type":"Point","coordinates":[-1.02443,49.0639]},"properties":{"date":"1944-07-30","unit_country":"USA","unit_type":"Infantry","unit_size":"Division","unit_name":"35th Infantry Division"}},{"type":"Feature","geometry":{"type":"Point","coordinates":[-0.86256,49.03495]},"properties":{"date":"1944-07-30","unit_country":"GB","unit_type":"Infantry","unit_size":"Division","unit_name":"15th Infantry Division"}},{"type":"Feature","geometry":{"type":"Point","coordinates":[-1.16942,48.99311]},"properties":{"date":"1944-07-30","unit_country":"USA","unit_type":"Infantry","unit_size":"Division","unit_name":"29th Infantry Division"}},{"type":"Feature","geometry":{"type":"Point","coordinates":[-0.96427,49.08061]},"properties":{"date":"1944-07-30","unit_country":"USA","unit_type":"Infantry","unit_size":"Division","unit_name":"2nd Infantry Division"}},{"type":"Feature","geometry":{"type":"Point","coordinates":[-0.53658,49.22136]},"properties":{"date":"1944-07-30","unit_country":"GB","unit_type":"Infantry","unit_size":"Corp","unit_name":"Twelfth Corps"}},{"type":"Feature","geometry":{"type":"Point","coordinates":[-0.30863,48.75981]},"properties":{"date":"1944-07-30","unit_country":"GMN","unit_type":"Infantry","unit_size":"Army Group","unit_name":"OB West"}},{"type":"Feature","geometry":{"type":"Point","coordinates":[-0.16232,49.01811]},"properties":{"date":"1944-07-30","unit_country":"GMN","unit_type":"Armoured","unit_size":"Corp","unit_name":"First SS Panzer Corps"}},{"type":"Feature","geometry":{"type":"Point","coordinates":[-0.4124,48.94725]},"properties":{"date":"1944-07-30","unit_country":"GMN","unit_type":"Armoured","unit_size":"Corp","unit_name":"Second SS Panzer Corps"}},{"type":"Feature","geometry":{"type":"Point","coordinates":[-0.69082,48.92783]},"properties":{"date":"1944-07-30","unit_country":"GMN","unit_type":"Armoured","unit_size":"Corp","unit_name":"Fourty-seventh Panzer Corps"}},{"type":"Feature","geometry":{"type":"Point","coordinates":[-1.52614,49.42424]},"properties":{"date":"1944-07-30","unit_country":"USA","unit_type":"Armoured","unit_size":"Division","unit_name":"5th Armoured Division"}},{"type":"Feature","geometry":{"type":"Point","coordinates":[-1.47525,48.85555]},"properties":{"date":"1944-07-30","unit_country":"USA","unit_type":"Infantry","unit_size":"Division","unit_name":"8th Infantry Division"}},{"type":"Feature","geometry":{"type":"Point","coordinates":[-1.3516,49.14254]},"properties":{"date":"1944-07-30","unit_country":"USA","unit_type":"Infantry","unit_size":"Division","unit_name":"83rd Infantry Division"}},{"type":"Feature","geometry":{"type":"Point","coordinates":[-1.52965,49.11843]},"properties":{"date":"1944-07-30","unit_country":"USA","unit_type":"Infantry","unit_size":"Corp","unit_name":"Eighth Corps"}},{"type":"Feature","geometry":{"type":"Point","coordinates":[-1.23437,48.7323]},"properties":{"date":"1944-07-30","unit_country":"GMN","unit_type":"Infantry","unit_size":"Corp","unit_name":"Eighty-fourth Corps"}},{"type":"Feature","geometry":{"type":"Point","coordinates":[-0.93998,49.05156]},"properties":{"date":"1944-07-30","unit_country":"USA","unit_type":"Infantry","unit_size":"Division","unit_name":"5th Infantry Division"}},{"type":"Feature","geometry":{"type":"Point","coordinates":[-1.32034,49.16764]},"properties":{"date":"1944-07-30","unit_country":"USA","unit_type":"Infantry","unit_size":"Corp","unit_name":"Fifteenth Corps"}},{"type":"Feature","geometry":{"type":"Point","coordinates":[-1.38004,49.17765]},"properties":{"date":"1944-07-30","unit_country":"USA","unit_type":"Infantry","unit_size":"Division","unit_name":"90th Infantry Division"}},{"type":"Feature","geometry":{"type":"Point","coordinates":[-1.02061,48.99526]},"properties":{"date":"1944-07-30","unit_country":"GMN","unit_type":"Infantry","unit_size":"Division","unit_name":"352nd Infantry Division"}},{"type":"Feature","geometry":{"type":"Point","coordinates":[-1.53239,48.91726]},"properties":{"date":"1944-07-30","unit_country":"USA","unit_type":"Infantry","unit_size":"Division","unit_name":"79th Infantry Division"}},{"type":"Feature","geometry":{"type":"Point","coordinates":[-1.02476,48.96906]},"properties":{"date":"1944-07-30","unit_country":"GMN","unit_type":"Infantry","unit_size":"Division","unit_name":"275th Infantry Division"}},{"type":"Feature","geometry":{"type":"Point","coordinates":[-0.23961,49.08007]},"properties":{"date":"1944-07-30","unit_country":"GMN","unit_type":"Armoured","unit_size":"Division","unit_name":"1st SS Panzer Division"}},{"type":"Feature","geometry":{"type":"Point","coordinates":[-1.54701,48.78806]},"properties":{"date":"1944-07-30","unit_country":"GMN","unit_type":"Infantry","unit_size":"Division","unit_name":"17th Luftwaffe Division"}},{"type":"Feature","geometry":{"type":"Point","coordinates":[-1.23866,48.85364]},"properties":{"date":"1944-07-30","unit_country":"GMN","unit_type":"Armoured","unit_size":"Division","unit_name":"2nd SS Panzer Division"}},{"type":"Feature","geometry":{"type":"Point","coordinates":[-0.73171,49.23541]},"properties":{"date":"1944-07-30","unit_country":"GB","unit_type":"Infantry","unit_size":"Army","unit_name":"Second Army"}},{"type":"Feature","geometry":{"type":"Point","coordinates":[-1.11237,49.0154]},"properties":{"date":"1944-07-30","unit_country":"USA","unit_type":"Infantry","unit_size":"Division","unit_name":"30th Infantry Division"}},{"type":"Feature","geometry":{"type":"Point","coordinates":[-0.91094,48.8829]},"properties":{"date":"1944-07-30","unit_country":"GMN","unit_type":"Airborne","unit_size":"Corp","unit_name":"Second Fallschirmjäger Corps"}},{"type":"Feature","geometry":{"type":"Point","coordinates":[-1.28616,48.97416]},"properties":{"date":"1944-07-30","unit_country":"USA","unit_type":"Infantry","unit_size":"Division","unit_name":"1st Infantry Division"}},{"type":"Feature","geometry":{"type":"Point","coordinates":[-0.98553,48.93177]},"properties":{"date":"1944-07-30","unit_country":"GMN","unit_type":"Armoured","unit_size":"Division","unit_name":"2nd Panzer Division"}},{"type":"Feature","geometry":{"type":"Point","coordinates":[-1.34752,48.76441]},"properties":{"date":"1944-07-30","unit_country":"GMN","unit_type":"Airborne","unit_size":"Division","unit_name":"5th Fallschirmjäger Division"}},{"type":"Feature","geometry":{"type":"Point","coordinates":[-1.19714,48.8088]},"properties":{"date":"1944-07-30","unit_country":"GMN","unit_type":"Infantry","unit_size":"Division","unit_name":"343rd Infantry Division"}},{"type":"Feature","geometry":{"type":"Point","coordinates":[-1.42781,48.7626]},"properties":{"date":"1944-07-30","unit_country":"GMN","unit_type":"Mechanized","unit_size":"Division","unit_name":"17th Panzer Grenadier Division"}},{"type":"Feature","geometry":{"type":"Point","coordinates":[-0.24013,49.1914]},"properties":{"date":"1944-07-30","unit_country":"GB","unit_type":"Infantry","unit_size":"Division","unit_name":"9th Infantry Division"}},{"type":"Feature","geometry":{"type":"Point","coordinates":[-1.29127,48.80958]},"properties":{"date":"1944-07-30","unit_country":"GMN","unit_type":"Infantry","unit_size":"Division","unit_name":"243rd Infantry Division"}},{"type":"Feature","geometry":{"type":"Point","coordinates":[-1.38325,48.79596]},"properties":{"date":"1944-07-30","unit_country":"GMN","unit_type":"Infantry","unit_size":"Division","unit_name":"91st Infantry Division"}},{"type":"Feature","geometry":{"type":"Point","coordinates":[-1.40416,48.88716]},"properties":{"date":"1944-07-30","unit_country":"GMN","unit_type":"Infantry","unit_size":"Division","unit_name":"353rd Infantry Division"}},{"type":"Feature","geometry":{"type":"Point","coordinates":[-1.5211,48.76213]},"properties":{"date":"1944-07-30","unit_country":"GMN","unit_type":"Infantry","unit_size":"Division","unit_name":"265th Infantry Division"}},{"type":"Feature","geometry":{"type":"Point","coordinates":[-1.5291,48.87572]},"properties":{"date":"1944-07-30","unit_country":"USA","unit_type":"Armoured","unit_size":"Division","unit_name":"6th Armoured Division"}},{"type":"Feature","geometry":{"type":"Point","coordinates":[-1.23387,48.94123]},"properties":{"date":"1944-07-30","unit_country":"USA","unit_type":"Infantry","unit_size":"Division","unit_name":"4th Infantry Division"}},{"type":"Feature","geometry":{"type":"Point","coordinates":[-0.02971,49.14823]},"properties":{"date":"1944-07-30","unit_country":"GMN","unit_type":"Infantry","unit_size":"Corp","unit_name":"Eighty-sixth Corps"}},{"type":"Feature","geometry":{"type":"Point","coordinates":[-0.7184,49.23844]},"properties":{"date":"1944-07-30","unit_country":"GB","unit_type":"Infantry","unit_size":"Corp","unit_name":"Thirty Corps"}},{"type":"Feature","geometry":{"type":"Point","coordinates":[-0.4068,49.29582]},"properties":{"date":"1944-07-30","unit_country":"GB","unit_type":"Infantry","unit_size":"Corp","unit_name":"Eigth Corps"}},{"type":"Feature","geometry":{"type":"Point","coordinates":[-1.10897,48.88622]},"properties":{"date":"1944-07-30","unit_country":"GMN","unit_type":"Armoured","unit_size":"Division","unit_name":"116th Panzer Division"}},{"type":"Feature","geometry":{"type":"Point","coordinates":[-0.28768,49.14906]},"properties":{"date":"1944-07-30","unit_country":"CAN","unit_type":"Infantry","unit_size":"Brigade","unit_name":"8th Canadian Infantry Brigade"}},{"type":"Feature","geometry":{"type":"Point","coordinates":[-0.35603,49.18314]},"properties":{"date":"1944-07-30","unit_country":"CAN","unit_type":"Infantry","unit_size":"Brigade","unit_name":"9th Canadian Infantry Brigade"}},{"type":"Feature","geometry":{"type":"Point","coordinates":[-0.32576,49.14811]},"properties":{"date":"1944-07-30","unit_country":"CAN","unit_type":"Infantry","unit_size":"Brigade","unit_name":"7th Canadian Infantry Brigade"}},{"type":"Feature","geometry":{"type":"Point","coordinates":[-0.35237,49.16265]},"properties":{"date":"1944-07-30","unit_country":"CAN","unit_type":"Infantry","unit_size":"Brigade","unit_name":"4th Canadian Infantry Brigade"}},{"type":"Feature","geometry":{"type":"Point","coordinates":[-0.37385,49.15042]},"properties":{"date":"1944-07-30","unit_country":"CAN","unit_type":"Infantry","unit_size":"Brigade","unit_name":"10th Canadian Infantry Brigade"}},{"type":"Feature","geometry":{"type":"Point","coordinates":[-0.38717,49.14039]},"properties":{"date":"1944-07-30","unit_country":"CAN","unit_type":"Infantry","unit_size":"Brigade","unit_name":"6th Canadian Infantry Brigade"}},{"type":"Feature","geometry":{"type":"Point","coordinates":[-0.36611,49.16795]},"properties":{"date":"1944-07-30","unit_country":"CAN","unit_type":"Infantry","unit_size":"Division","unit_name":"2nd Canadian Infantry Division"}},{"type":"Feature","geometry":{"type":"Point","coordinates":[-0.2995,49.12397]},"properties":{"date":"1944-07-30","unit_country":"CAN","unit_type":"Infantry","unit_size":"Battalion","unit_name":"The Queen?s Own Rifles of Canadaÿ"}},{"type":"Feature","geometry":{"type":"Point","coordinates":[-0.44948,49.25121]},"properties":{"date":"1944-07-30","unit_country":"CAN","unit_type":"Infantry","unit_size":"Battalion","unit_name":"The North Nova Scotia Highlanders"}},{"type":"Feature","geometry":{"type":"Point","coordinates":[-0.42265,49.27861]},"properties":{"date":"1944-07-30","unit_country":"CAN","unit_type":"Infantry","unit_size":"Battalion","unit_name":"North Shore (New Brunswick) Regiment"}},{"type":"Feature","geometry":{"type":"Point","coordinates":[-0.413,49.26486]},"properties":{"date":"1944-07-30","unit_country":"CAN","unit_type":"Infantry","unit_size":"Battalion","unit_name":"The Canadian Scottish Regiment"}},{"type":"Feature","geometry":{"type":"Point","coordinates":[-0.33987,49.16789]},"properties":{"date":"1944-07-30","unit_country":"CAN","unit_type":"Armoured","unit_size":"Division","unit_name":"4th Armoured Division"}},{"type":"Feature","geometry":{"type":"Point","coordinates":[-0.41,49.26424]},"properties":{"date":"1944-07-30","unit_country":"CAN","unit_type":"Infantry","unit_size":"Battalion","unit_name":"The Regina Rifles"}},{"type":"Feature","geometry":{"type":"Point","coordinates":[-0.41258,49.26442]},"properties":{"date":"1944-07-30","unit_country":"CAN","unit_type":"Infantry","unit_size":"Battalion","unit_name":"The Royal Winnipeg Rifles"}},{"type":"Feature","geometry":{"type":"Point","coordinates":[-0.29033,49.15215]},"properties":{"date":"1944-07-30","unit_country":"CAN","unit_type":"Armoured","unit_size":"Battalion","unit_name":"21st Armoured Regiment (The Governor General?s Foot Guards)"}},{"type":"Feature","geometry":{"type":"Point","coordinates":[-0.33056,49.11117]},"properties":{"date":"1944-07-30","unit_country":"CAN","unit_type":"Infantry","unit_size":"Battalion","unit_name":"Highland Light Infantry of Canada"}},{"type":"Feature","geometry":{"type":"Point","coordinates":[-0.31503,49.13205]},"properties":{"date":"1944-07-30","unit_country":"CAN","unit_type":"Infantry","unit_size":"Battalion","unit_name":"Stormont, Dundas & Glengarry Highlanders"}},{"type":"Feature","geometry":{"type":"Point","coordinates":[-0.3473,49.16596]},"properties":{"date":"1944-07-30","unit_country":"CAN","unit_type":"Armoured","unit_size":"Battalion","unit_name":"6th Canadian Armoured Regiment (1st Hussars)ÿ"}},{"type":"Feature","geometry":{"type":"Point","coordinates":[-0.28777,49.14739]},"properties":{"date":"1944-07-30","unit_country":"CAN","unit_type":"Reconnaissance","unit_size":"Battalion","unit_name":"7th Reconnaissance Regiment (17th Duke of York's Royal Canadian Hussars)"}},{"type":"Feature","geometry":{"type":"Point","coordinates":[-0.34456,49.17111]},"properties":{"date":"1944-07-30","unit_country":"CAN","unit_type":"Artillery","unit_size":"Battalion","unit_name":"12th Field Regiment Royal Canadian Artillery"}},{"type":"Feature","geometry":{"type":"Point","coordinates":[-0.4216,49.26398]},"properties":{"date":"1944-07-30","unit_country":"CAN","unit_type":"Artillery","unit_size":"Battalion","unit_name":"13th Field Regiment Royal Canadian Artillery"}},{"type":"Feature","geometry":{"type":"Point","coordinates":[-0.41816,49.25371]},"properties":{"date":"1944-07-30","unit_country":"CAN","unit_type":"Artillery","unit_size":"Battalion","unit_name":"14th Field Regiment Royal Canadian Artillery"}},{"type":"Feature","geometry":{"type":"Point","coordinates":[-0.29851,49.14864]},"properties":{"date":"1944-07-30","unit_country":"CAN","unit_type":"Armoured","unit_size":"Battalion","unit_name":"22nd Armoured Regiment (Canadian Grenadier Guards)"}},{"type":"Feature","geometry":{"type":"Point","coordinates":[-0.35391,49.17123]},"properties":{"date":"1944-07-30","unit_country":"CAN","unit_type":"Mechanized","unit_size":"Battalion","unit_name":"The Lake Superior Regiment"}},{"type":"Feature","geometry":{"type":"Point","coordinates":[-0.37202,49.14836]},"properties":{"date":"1944-07-30","unit_country":"CAN","unit_type":"Infantry","unit_size":"Battalion","unit_name":"The Lincoln & Welland Regiment"}},{"type":"Feature","geometry":{"type":"Point","coordinates":[-0.31503,49.13205]},"properties":{"date":"1944-07-30","unit_country":"CAN","unit_type":"Infantry","unit_size":"Battalion","unit_name":"The Algonquin Regiment"}},{"type":"Feature","geometry":{"type":"Point","coordinates":[-0.32246,49.1369]},"properties":{"date":"1944-07-30","unit_country":"CAN","unit_type":"Infantry","unit_size":"Battalion","unit_name":"The Argyll & Sutherland Highlanders of Canada (Princess Louise's)"}},{"type":"Feature","geometry":{"type":"Point","coordinates":[-0.36197,49.14905]},"properties":{"date":"1944-07-30","unit_country":"CAN","unit_type":"Armoured","unit_size":"Battalion","unit_name":"27th Canadian Armoured Regiment (The Sherbrooke Fusiliers)ÿ"}},{"type":"Feature","geometry":{"type":"Point","coordinates":[-0.39119,49.13856]},"properties":{"date":"1944-07-30","unit_country":"CAN","unit_type":"Infantry","unit_size":"Brigade","unit_name":"5th Canadian Infantry Brigade"}},{"type":"Feature","geometry":{"type":"Point","coordinates":[-0.32727,49.15855]},"properties":{"date":"1944-07-30","unit_country":"CAN","unit_type":"Artillery","unit_size":"Battalion","unit_name":"19th Field Regiment Royal Canadian Artillery"}},{"type":"Feature","geometry":{"type":"Point","coordinates":[-0.33335,49.12174]},"properties":{"date":"1944-07-30","unit_country":"CAN","unit_type":"Infantry","unit_size":"Battalion","unit_name":"The Royal Regiment of Canada"}},{"type":"Feature","geometry":{"type":"Point","coordinates":[-0.3793,49.1562]},"properties":{"date":"1944-07-30","unit_country":"CAN","unit_type":"Armoured","unit_size":"Brigade","unit_name":"2nd Canadian Armoured Brigade"}},{"type":"Feature","geometry":{"type":"Point","coordinates":[-0.33113,49.14765]},"properties":{"date":"1944-07-30","unit_country":"CAN","unit_type":"Artillery","unit_size":"Battalion","unit_name":"15th Field Regiment, Royal Canadian Artillery"}},{"type":"Feature","geometry":{"type":"Point","coordinates":[-0.3478,49.15662]},"properties":{"date":"1944-07-30","unit_country":"CAN","unit_type":"Artillery","unit_size":"Battalion","unit_name":"23rd Field Regiment, Royal Canadian Artillery"}},{"type":"Feature","geometry":{"type":"Point","coordinates":[-0.32121,49.11455]},"properties":{"date":"1944-07-30","unit_country":"CAN","unit_type":"Infantry","unit_size":"Battalion","unit_name":"Essex Scottish Regiment"}},{"type":"Feature","geometry":{"type":"Point","coordinates":[-0.38629,49.14443]},"properties":{"date":"1944-07-30","unit_country":"CAN","unit_type":"Infantry","unit_size":"Battalion","unit_name":"The Calgary Highlanders"}},{"type":"Feature","geometry":{"type":"Point","coordinates":[-0.33085,49.11148]},"properties":{"date":"1944-07-30","unit_country":"CAN","unit_type":"Infantry","unit_size":"Battalion","unit_name":"Royal Hamilton Light Infantry"}},{"type":"Feature","geometry":{"type":"Point","coordinates":[-0.33164,49.14972]},"properties":{"date":"1944-07-30","unit_country":"CAN","unit_type":"Reconnaissance","unit_size":"Battalion","unit_name":"29th Reconnaissance Regiment (The South Alberta Regiment)"}},{"type":"Feature","geometry":{"type":"Point","coordinates":[-0.37443,49.11699]},"properties":{"date":"1944-07-30","unit_country":"CAN","unit_type":"Infantry","unit_size":"Battalion","unit_name":"Queen's Own Cameron Highlanders of Canada"}},{"type":"Feature","geometry":{"type":"Point","coordinates":[-0.37703,49.1205]},"properties":{"date":"1944-07-30","unit_country":"CAN","unit_type":"Infantry","unit_size":"Battalion","unit_name":"Le Regiment de Maisonneuve"}},{"type":"Feature","geometry":{"type":"Point","coordinates":[-0.3746,49.11714]},"properties":{"date":"1944-07-30","unit_country":"CAN","unit_type":"Infantry","unit_size":"Battalion","unit_name":"Les Fusiliers Mont-Royal"}},{"type":"Feature","geometry":{"type":"Point","coordinates":[-0.3754,49.14944]},"properties":{"date":"1944-07-30","unit_country":"CAN","unit_type":"Infantry","unit_size":"Battalion","unit_name":"The Black Watch (Royal Highalnders) of Canada"}},{"type":"Feature","geometry":{"type":"Point","coordinates":[-0.35336,49.12174]},"properties":{"date":"1944-07-30","unit_country":"CAN","unit_type":"Infantry","unit_size":"Battalion","unit_name":"The South Sasketchewan Regiment"}},{"type":"Feature","geometry":{"type":"Point","coordinates":[-0.31555,49.17084]},"properties":{"date":"1944-07-30","unit_country":"CAN","unit_type":"Armoured","unit_size":"Battalion","unit_name":"28th Armoured Regiment (The British Columbia Regiment, Duke of Connaught's Own Rifles)"}},{"type":"Feature","geometry":{"type":"Point","coordinates":[-0.2526,49.25684]},"properties":{"date":"1944-07-30","unit_country":"CAN","unit_type":"Airborne","unit_size":"Battalion","unit_name":"1st Canadian Parachute Battalion"}},{"type":"Feature","geometry":{"type":"Point","coordinates":[-0.43708,49.25485]},"properties":{"date":"1944-07-30","unit_country":"CAN","unit_type":"Engineer","unit_size":"Company","unit_name":"6th Field Company, Royal Canadian Engineers"}},{"type":"Feature","geometry":{"type":"Point","coordinates":[-0.41348,49.26547]},"properties":{"date":"1944-07-30","unit_country":"CAN","unit_type":"Infantry","unit_size":"Division","unit_name":"3rd Canadian Infantry Division"}},{"type":"Feature","geometry":{"type":"Point","coordinates":[-0.3748,49.14918]},"properties":{"date":"1944-07-30","unit_country":"CAN","unit_type":"Armoured","unit_size":"Battalion","unit_name":"10th Canadian Armoured Regiment (The Fort Garry Horse)"}},{"type":"Feature","geometry":{"type":"Point","coordinates":[-0.31612,49.18352]},"properties":{"date":"1944-07-30","unit_country":"CAN","unit_type":"Anti-Tank","unit_size":"Battalion","unit_name":"5th Anti-Tank Regiment, Royal Canadian Artillery"}},{"type":"Feature","geometry":{"type":"Point","coordinates":[-0.37032,49.14721]},"properties":{"date":"1944-07-30","unit_country":"CAN","unit_type":"Anti-Tank","unit_size":"Company","unit_name":"5th Anti-Tank Regiment, Royal Canadian Artillery"}},{"type":"Feature","geometry":{"type":"Point","coordinates":[-0.35787,49.14788]},"properties":{"date":"1944-07-30","unit_country":"CAN","unit_type":"Anti-Tank","unit_size":"Company","unit_name":"5th Anti-Tank Regiment, Royal Canadian Artillery"}},{"type":"Feature","geometry":{"type":"Point","coordinates":[-0.35787,49.14788]},"properties":{"date":"1944-07-30","unit_country":"CAN","unit_type":"Anti-Tank","unit_size":"Company","unit_name":"5th Anti-Tank Regiment, Royal Canadian Artillery"}},{"type":"Feature","geometry":{"type":"Point","coordinates":[-0.34263,49.13986]},"properties":{"date":"1944-07-30","unit_country":"CAN","unit_type":"Anti-Tank","unit_size":"Company","unit_name":"5th Anti-Tank Regiment, Royal Canadian Artillery"}},{"type":"Feature","geometry":{"type":"Point","coordinates":[-0.35905,49.16315]},"properties":{"date":"1944-07-30","unit_country":"CAN","unit_type":"Artillery","unit_size":"Battalion","unit_name":"5th Field Regiment, Royal Canadian Artillery"}},{"type":"Feature","geometry":{"type":"Point","coordinates":[-0.36035,49.15614]},"properties":{"date":"1944-07-30","unit_country":"CAN","unit_type":"Artillery","unit_size":"Battalion","unit_name":"6th Field Regiment, Royal Canadian Artillery"}},{"type":"Feature","geometry":{"type":"Point","coordinates":[-0.38983,49.15292]},"properties":{"date":"1944-07-30","unit_country":"CAN","unit_type":"Artillery","unit_size":"Battalion","unit_name":"4th Field Regiment, Royal Canadian Artillery"}},{"type":"Feature","geometry":{"type":"Point","coordinates":[-0.34316,49.12183]},"properties":{"date":"1944-07-30","unit_country":"CAN","unit_type":"Reconnaissance","unit_size":"Battalion","unit_name":"8th Reconnaissance Regiment (14th Canadian Hussars)"}},{"type":"Feature","geometry":{"type":"Point","coordinates":[-0.30031,49.1333]},"properties":{"date":"1944-07-30","unit_country":"Can","unit_type":"Infantry","unit_size":"Battalion","unit_name":"Regiment de la Chaudiere"}},{"type":"Feature","geometry":{"type":"Point","coordinates":[-0.4463,49.26042]},"properties":{"date":"1944-07-30","unit_country":"CAN","unit_type":"Engineer","unit_size":"Company","unit_name":"18th Field Company Royal Canadian Engineers"}},{"type":"Feature","geometry":{"type":"Point","coordinates":[-0.34703,49.21392]},"properties":{"date":"1944-07-30","unit_country":"CAN","unit_type":"Engineer","unit_size":"Company","unit_name":"5th Field Company Royal Canadian Engineers"}},{"type":"Feature","geometry":{"type":"Point","coordinates":[-0.42533,49.26241]},"properties":{"date":"1944-07-30","unit_country":"CAN","unit_type":"Engineer","unit_size":"Company","unit_name":"16th Field Company Royal Canadian Engineers"}},{"type":"Feature","geometry":{"type":"Point","coordinates":[-0.31724,49.2115]},"properties":{"date":"1944-07-30","unit_country":"CAN","unit_type":"Engineer","unit_size":"Company","unit_name":"6th Field Park Squadron"}},{"type":"Feature","geometry":{"type":"Point","coordinates":[-0.40194,49.24444]},"properties":{"date":"1944-07-30","unit_country":"CAN","unit_type":"Infantry","unit_size":"Battalion","unit_name":"The Cameron Highlanders of Ottawa (Duke of Edinburgh's Own)"}},{"type":"Feature","geometry":{"type":"Point","coordinates":[-0.26769,49.18075]},"properties":{"date":"1944-07-30","unit_country":"CAN","unit_type":"Infantry","unit_size":"Platoon","unit_name":"The Cameron Highlanders of Ottawa (Duke of Edinburgh's Own)"}}]}