{"type":"FeatureCollection","features":[{"type":"Feature","geometry":{"type":"Point","coordinates":[-0.82569,49.1397]},"properties":{"date":"1944-08-25","unit_country":"GB","unit_type":"Infantry","unit_size":"Army Group","unit_name":"Twenty-First Army Group"}},{"type":"Feature","geometry":{"type":"Point","coordinates":[-0.75097,48.86809]},"properties":{"date":"1944-08-25","unit_country":"GB","unit_type":"Infantry","unit_size":"Division","unit_name":"3rd Infantry Division"}},{"type":"Feature","geometry":{"type":"Point","coordinates":[-0.80603,48.9249]},"properties":{"date":"1944-08-25","unit_country":"GB","unit_type":"Infantry","unit_size":"Corp","unit_name":"Eigth Corps"}},{"type":"Feature","geometry":{"type":"Point","coordinates":[0.07671,49.28891]},"properties":{"date":"1944-08-25","unit_country":"GB","unit_type":"Airborne","unit_size":"Division","unit_name":"6th Airborne Division"}},{"type":"Feature","geometry":{"type":"Point","coordinates":[-0.5291,49.28642]},"properties":{"date":"1944-08-25","unit_country":"CAN","unit_type":"Infantry","unit_size":"Army","unit_name":"First Army"}},{"type":"Feature","geometry":{"type":"Point","coordinates":[0.2742,49.24442]},"properties":{"date":"1944-08-25","unit_country":"GB","unit_type":"Infantry","unit_size":"Division","unit_name":"49th Infantry Division"}},{"type":"Feature","geometry":{"type":"Point","coordinates":[0.15071,49.16923]},"properties":{"date":"1944-08-25","unit_country":"GB","unit_type":"Infantry","unit_size":"Division","unit_name":"51st Infantry Division"}},{"type":"Feature","geometry":{"type":"Point","coordinates":[-0.16279,49.09451]},"properties":{"date":"1944-08-25","unit_country":"GB","unit_type":"Infantry","unit_size":"Corp","unit_name":"First Corps"}},{"type":"Feature","geometry":{"type":"Point","coordinates":[0.18045,48.95829]},"properties":{"date":"1944-08-25","unit_country":"CAN","unit_type":"Infantry","unit_size":"Corp","unit_name":"Second Corps"}},{"type":"Feature","geometry":{"type":"Point","coordinates":[0.07135,48.90404]},"properties":{"date":"1944-08-25","unit_country":"POL","unit_type":"Armoured","unit_size":"Division","unit_name":"1st Armoured Division"}},{"type":"Feature","geometry":{"type":"Point","coordinates":[0.39591,49.13104]},"properties":{"date":"1944-08-25","unit_country":"GB","unit_type":"Armoured","unit_size":"Division","unit_name":"7th Armoured Division"}},{"type":"Feature","geometry":{"type":"Point","coordinates":[-0.0249,48.85371]},"properties":{"date":"1944-08-25","unit_country":"GB","unit_type":"Infantry","unit_size":"Division","unit_name":"7th Infantry Division"}},{"type":"Feature","geometry":{"type":"Point","coordinates":[0.45683,48.85883]},"properties":{"date":"1944-08-25","unit_country":"GB","unit_type":"Infantry","unit_size":"Division","unit_name":"53rd Infantry Division"}},{"type":"Feature","geometry":{"type":"Point","coordinates":[0.27527,48.95496]},"properties":{"date":"1944-08-25","unit_country":"GB","unit_type":"Infantry","unit_size":"Division","unit_name":"15th Infantry Division"}},{"type":"Feature","geometry":{"type":"Point","coordinates":[0.68644,48.72906]},"properties":{"date":"1944-08-25","unit_country":"GB","unit_type":"Infantry","unit_size":"Division","unit_name":"43rd Infantry Division"}},{"type":"Feature","geometry":{"type":"Point","coordinates":[0.65456,48.77935]},"properties":{"date":"1944-08-25","unit_country":"GB","unit_type":"Infantry","unit_size":"Division","unit_name":"50th Infantry Division"}},{"type":"Feature","geometry":{"type":"Point","coordinates":[-0.7473,48.83337]},"properties":{"date":"1944-08-25","unit_country":"GB","unit_type":"Armoured","unit_size":"Division","unit_name":"Guards Division"}},{"type":"Feature","geometry":{"type":"Point","coordinates":[0.3438,48.75128]},"properties":{"date":"1944-08-25","unit_country":"GB","unit_type":"Infantry","unit_size":"Corp","unit_name":"Thirty Corps"}},{"type":"Feature","geometry":{"type":"Point","coordinates":[1.17899,48.98732]},"properties":{"date":"1944-08-25","unit_country":"USA","unit_type":"Infantry","unit_size":"Corp","unit_name":"Nineteenth Corps"}},{"type":"Feature","geometry":{"type":"Point","coordinates":[2.0682,48.63087]},"properties":{"date":"1944-08-25","unit_country":"USA","unit_type":"Infantry","unit_size":"Corp","unit_name":"Fifth Corps"}},{"type":"Feature","geometry":{"type":"Point","coordinates":[1.66797,48.95853]},"properties":{"date":"1944-08-25","unit_country":"USA","unit_type":"Infantry","unit_size":"Corp","unit_name":"Fifteenth Corps"}},{"type":"Feature","geometry":{"type":"Point","coordinates":[1.13521,48.48382]},"properties":{"date":"1944-08-25","unit_country":"USA","unit_type":"Infantry","unit_size":"Corp","unit_name":"Eighth Corps"}},{"type":"Feature","geometry":{"type":"Point","coordinates":[2.60453,48.0234]},"properties":{"date":"1944-08-25","unit_country":"USA","unit_type":"Infantry","unit_size":"Corp","unit_name":"Twelfth Corps"}},{"type":"Feature","geometry":{"type":"Point","coordinates":[1.14473,48.22089]},"properties":{"date":"1944-08-25","unit_country":"USA","unit_type":"Infantry","unit_size":"Army","unit_name":"Third Army"}},{"type":"Feature","geometry":{"type":"Point","coordinates":[-0.43535,48.52237]},"properties":{"date":"1944-08-25","unit_country":"USA","unit_type":"Infantry","unit_size":"Army","unit_name":"First Army"}},{"type":"Feature","geometry":{"type":"Point","coordinates":[-0.48235,49.05489]},"properties":{"date":"1944-08-25","unit_country":"GB","unit_type":"Infantry","unit_size":"Army","unit_name":"Second Army"}},{"type":"Feature","geometry":{"type":"Point","coordinates":[1.65584,49.03776]},"properties":{"date":"1944-08-25","unit_country":"USA","unit_type":"Infantry","unit_size":"Division","unit_name":"79th Infantry Division"}},{"type":"Feature","geometry":{"type":"Point","coordinates":[1.10779,49.18666]},"properties":{"date":"1944-08-25","unit_country":"USA","unit_type":"Infantry","unit_size":"Division","unit_name":"30th Infantry Division"}},{"type":"Feature","geometry":{"type":"Point","coordinates":[2.24434,48.83985]},"properties":{"date":"1944-08-25","unit_country":"FRE","unit_type":"Armoured","unit_size":"Division","unit_name":"2nd Armoured Division"}},{"type":"Feature","geometry":{"type":"Point","coordinates":[0.89792,49.12884]},"properties":{"date":"1944-08-25","unit_country":"USA","unit_type":"Infantry","unit_size":"Division","unit_name":"28th Infantry Division"}},{"type":"Feature","geometry":{"type":"Point","coordinates":[2.23767,48.65913]},"properties":{"date":"1944-08-25","unit_country":"USA","unit_type":"Infantry","unit_size":"Division","unit_name":"4th Infantry Division"}},{"type":"Feature","geometry":{"type":"Point","coordinates":[2.58508,48.72992]},"properties":{"date":"1944-08-25","unit_country":"GMN","unit_type":"Mechanized","unit_size":"Division","unit_name":"17th Panzer Grenadier Division"}},{"type":"Feature","geometry":{"type":"Point","coordinates":[0.91386,48.59227]},"properties":{"date":"1944-08-25","unit_country":"USA","unit_type":"Infantry","unit_size":"Division","unit_name":"9th Infantry Division"}},{"type":"Feature","geometry":{"type":"Point","coordinates":[2.44052,48.50185]},"properties":{"date":"1944-08-25","unit_country":"USA","unit_type":"Armoured","unit_size":"Division","unit_name":"3rd Armoured Division"}},{"type":"Feature","geometry":{"type":"Point","coordinates":[0.29693,49.36744]},"properties":{"date":"1944-08-25","unit_country":"GMN","unit_type":"Infantry","unit_size":"Division","unit_name":"711th Infantry Division"}},{"type":"Feature","geometry":{"type":"Point","coordinates":[0.41876,49.1722]},"properties":{"date":"1944-08-25","unit_country":"GMN","unit_type":"Infantry","unit_size":"Division","unit_name":"272nd Infantry Division"}},{"type":"Feature","geometry":{"type":"Point","coordinates":[0.41554,49.23514]},"properties":{"date":"1944-08-25","unit_country":"GMN","unit_type":"Infantry","unit_size":"Division","unit_name":"346th Infantry Division"}},{"type":"Feature","geometry":{"type":"Point","coordinates":[1.23432,49.26441]},"properties":{"date":"1944-08-25","unit_country":"GMN","unit_type":"Armoured","unit_size":"Division","unit_name":"12th SS Panzer Division"}},{"type":"Feature","geometry":{"type":"Point","coordinates":[0.61518,48.99267]},"properties":{"date":"1944-08-25","unit_country":"GMN","unit_type":"Armoured","unit_size":"Division","unit_name":"9th SS Panzer Division"}},{"type":"Feature","geometry":{"type":"Point","coordinates":[1.11368,49.2606]},"properties":{"date":"1944-08-25","unit_country":"GMN","unit_type":"Infantry","unit_size":"Division","unit_name":"17th Luftwaffe Division"}},{"type":"Feature","geometry":{"type":"Point","coordinates":[0.65456,49.06596]},"properties":{"date":"1944-08-25","unit_country":"GMN","unit_type":"Infantry","unit_size":"Division","unit_name":"85th Infantry Division"}},{"type":"Feature","geometry":{"type":"Point","coordinates":[1.71306,49.0731]},"properties":{"date":"1944-08-25","unit_country":"GMN","unit_type":"Infantry","unit_size":"Division","unit_name":"49th Infantry Division"}},{"type":"Feature","geometry":{"type":"Point","coordinates":[1.81455,49.02384]},"properties":{"date":"1944-08-25","unit_country":"GMN","unit_type":"Infantry","unit_size":"Division","unit_name":"18th Luftwaffe Division"}},{"type":"Feature","geometry":{"type":"Point","coordinates":[2.7185,48.50679]},"properties":{"date":"1944-08-25","unit_country":"GMN","unit_type":"Infantry","unit_size":"Division","unit_name":"48th Infantry Division"}},{"type":"Feature","geometry":{"type":"Point","coordinates":[0.5946,49.14186]},"properties":{"date":"1944-08-25","unit_country":"GMN","unit_type":"Armoured","unit_size":"Division","unit_name":"21st Panzer Division"}},{"type":"Feature","geometry":{"type":"Point","coordinates":[0.66241,48.88226]},"properties":{"date":"1944-08-25","unit_country":"GMN","unit_type":"Armoured","unit_size":"Division","unit_name":"116th Panzer Division"}},{"type":"Feature","geometry":{"type":"Point","coordinates":[1.09,49.28392]},"properties":{"date":"1944-08-25","unit_country":"GMN","unit_type":"Airborne","unit_size":"Division","unit_name":"6th Fallschirmjäger Division"}},{"type":"Feature","geometry":{"type":"Point","coordinates":[0.99125,49.28416]},"properties":{"date":"1944-08-25","unit_country":"USA","unit_type":"Armoured","unit_size":"Division","unit_name":"2nd Armoured Division"}},{"type":"Feature","geometry":{"type":"Point","coordinates":[1.26561,49.15638]},"properties":{"date":"1944-08-25","unit_country":"USA","unit_type":"Armoured","unit_size":"Division","unit_name":"5th Armoured Division"}},{"type":"Feature","geometry":{"type":"Point","coordinates":[0.93902,49.38052]},"properties":{"date":"1944-08-25","unit_country":"GMN","unit_type":"Infantry","unit_size":"Division","unit_name":"344th Infantry Division"}},{"type":"Feature","geometry":{"type":"Point","coordinates":[0.46837,48.74021]},"properties":{"date":"1944-08-25","unit_country":"GB","unit_type":"Armoured","unit_size":"Division","unit_name":"11th Armoured Division"}},{"type":"Feature","geometry":{"type":"Point","coordinates":[0.19622,48.7317]},"properties":{"date":"1944-08-25","unit_country":"USA","unit_type":"Infantry","unit_size":"Division","unit_name":"90th Infantry Division"}},{"type":"Feature","geometry":{"type":"Point","coordinates":[2.45736,48.38484]},"properties":{"date":"1944-08-25","unit_country":"USA","unit_type":"Infantry","unit_size":"Corp","unit_name":"Twentieth Corps"}},{"type":"Feature","geometry":{"type":"Point","coordinates":[-0.75502,48.04122]},"properties":{"date":"1944-08-25","unit_country":"USA","unit_type":"Infantry","unit_size":"Army Group","unit_name":"Twelfth Army Group"}},{"type":"Feature","geometry":{"type":"Point","coordinates":[2.75402,48.34528]},"properties":{"date":"1944-08-25","unit_country":"USA","unit_type":"Infantry","unit_size":"Division","unit_name":"5th Infantry Division"}},{"type":"Feature","geometry":{"type":"Point","coordinates":[2.59376,48.53469]},"properties":{"date":"1944-08-25","unit_country":"USA","unit_type":"Armoured","unit_size":"Division","unit_name":"7th Armoured Division"}},{"type":"Feature","geometry":{"type":"Point","coordinates":[2.71987,48.01929]},"properties":{"date":"1944-08-25","unit_country":"GMN","unit_type":"Infantry","unit_size":"Division","unit_name":"338th Infantry Division"}},{"type":"Feature","geometry":{"type":"Point","coordinates":[2.74843,48.42261]},"properties":{"date":"1944-08-25","unit_country":"GMN","unit_type":"Infantry","unit_size":"Division","unit_name":"708th Infantry Division"}},{"type":"Feature","geometry":{"type":"Point","coordinates":[0.03893,48.68697]},"properties":{"date":"1944-08-25","unit_country":"USA","unit_type":"Infantry","unit_size":"Division","unit_name":"80th Infantry Division"}},{"type":"Feature","geometry":{"type":"Point","coordinates":[2.7439,48.45783]},"properties":{"date":"1944-08-25","unit_country":"GMN","unit_type":"Armoured","unit_size":"Division","unit_name":"Panzer Lehr Division"}},{"type":"Feature","geometry":{"type":"Point","coordinates":[1.15799,48.42856]},"properties":{"date":"1944-08-25","unit_country":"USA","unit_type":"Infantry","unit_size":"Division","unit_name":"1st Infantry Division"}},{"type":"Feature","geometry":{"type":"Point","coordinates":[0.59602,48.96031]},"properties":{"date":"1944-08-25","unit_country":"GMN","unit_type":"Infantry","unit_size":"Division","unit_name":"89th Infantry Division"}},{"type":"Feature","geometry":{"type":"Point","coordinates":[0.74379,48.81326]},"properties":{"date":"1944-08-25","unit_country":"GMN","unit_type":"Infantry","unit_size":"Division","unit_name":"331st Infantry Division"}},{"type":"Feature","geometry":{"type":"Point","coordinates":[0.56711,48.91855]},"properties":{"date":"1944-08-25","unit_country":"GMN","unit_type":"Armoured","unit_size":"Division","unit_name":"2nd Panzer Division"}},{"type":"Feature","geometry":{"type":"Point","coordinates":[0.71631,48.84681]},"properties":{"date":"1944-08-25","unit_country":"GMN","unit_type":"Armoured","unit_size":"Division","unit_name":"10th SS Panzer Division"}},{"type":"Feature","geometry":{"type":"Point","coordinates":[0.85814,49.188]},"properties":{"date":"1944-08-25","unit_country":"CAN","unit_type":"Infantry","unit_size":"Brigade","unit_name":"7th Canadian Infantry Brigade"}},{"type":"Feature","geometry":{"type":"Point","coordinates":[0.75731,49.19486]},"properties":{"date":"1944-08-25","unit_country":"CAN","unit_type":"Infantry","unit_size":"Brigade","unit_name":"8th Canadian Infantry Brigade"}},{"type":"Feature","geometry":{"type":"Point","coordinates":[0.51448,49.11053]},"properties":{"date":"1944-08-25","unit_country":"CAN","unit_type":"Infantry","unit_size":"Brigade","unit_name":"9th Canadian Infantry Brigade"}},{"type":"Feature","geometry":{"type":"Point","coordinates":[0.60142,49.19237]},"properties":{"date":"1944-08-25","unit_country":"CAN","unit_type":"Infantry","unit_size":"Brigade","unit_name":"4th Canadian Infantry Brigade"}},{"type":"Feature","geometry":{"type":"Point","coordinates":[1.04399,49.21952]},"properties":{"date":"1944-08-25","unit_country":"CAN","unit_type":"Infantry","unit_size":"Brigade","unit_name":"10th Canadian Infantry Brigade"}},{"type":"Feature","geometry":{"type":"Point","coordinates":[1.07435,49.20428]},"properties":{"date":"1944-08-25","unit_country":"CAN","unit_type":"Armoured","unit_size":"Brigade","unit_name":"4th Canadian Armoured Brigade"}},{"type":"Feature","geometry":{"type":"Point","coordinates":[0.4523,49.1368]},"properties":{"date":"1944-08-25","unit_country":"CAN","unit_type":"Infantry","unit_size":"Brigade","unit_name":"6th Canadian Infantry Brigade"}},{"type":"Feature","geometry":{"type":"Point","coordinates":[0.66192,49.20262]},"properties":{"date":"1944-08-25","unit_country":"CAN","unit_type":"Infantry","unit_size":"Division","unit_name":"2nd Canadian Infantry Division"}},{"type":"Feature","geometry":{"type":"Point","coordinates":[0.74189,49.14709]},"properties":{"date":"1944-08-25","unit_country":"CAN","unit_type":"Infantry","unit_size":"Battalion","unit_name":"The Queen?s Own Rifles of Canadaÿ"}},{"type":"Feature","geometry":{"type":"Point","coordinates":[0.66953,49.14123]},"properties":{"date":"1944-08-25","unit_country":"CAN","unit_type":"Infantry","unit_size":"Battalion","unit_name":"The North Nova Scotia Highlanders"}},{"type":"Feature","geometry":{"type":"Point","coordinates":[0.76194,49.19291]},"properties":{"date":"1944-08-25","unit_country":"CAN","unit_type":"Infantry","unit_size":"Battalion","unit_name":"North Shore (New Brunswick) Regiment"}},{"type":"Feature","geometry":{"type":"Point","coordinates":[0.70601,49.18119]},"properties":{"date":"1944-08-25","unit_country":"CAN","unit_type":"Infantry","unit_size":"Battalion","unit_name":"The Canadian Scottish Regiment"}},{"type":"Feature","geometry":{"type":"Point","coordinates":[0.95641,49.16977]},"properties":{"date":"1944-08-25","unit_country":"CAN","unit_type":"Armoured","unit_size":"Division","unit_name":"4th Armoured Division"}},{"type":"Feature","geometry":{"type":"Point","coordinates":[0.84834,49.18612]},"properties":{"date":"1944-08-25","unit_country":"CAN","unit_type":"Infantry","unit_size":"Battalion","unit_name":"The Regina Rifles"}},{"type":"Feature","geometry":{"type":"Point","coordinates":[0.98185,49.26615]},"properties":{"date":"1944-08-25","unit_country":"CAN","unit_type":"Infantry","unit_size":"Battalion","unit_name":"The Royal Winnipeg Rifles"}},{"type":"Feature","geometry":{"type":"Point","coordinates":[1.07377,49.20897]},"properties":{"date":"1944-08-25","unit_country":"CAN","unit_type":"Armoured","unit_size":"Battalion","unit_name":"21st Armoured Regiment (The Governor General?s Foot Guards)"}},{"type":"Feature","geometry":{"type":"Point","coordinates":[0.65787,49.15217]},"properties":{"date":"1944-08-25","unit_country":"CAN","unit_type":"Infantry","unit_size":"Battalion","unit_name":"Highland Light Infantry of Canada"}},{"type":"Feature","geometry":{"type":"Point","coordinates":[0.65339,49.15515]},"properties":{"date":"1944-08-25","unit_country":"CAN","unit_type":"Infantry","unit_size":"Battalion","unit_name":"Stormont, Dundas & Glengarry Highlanders"}},{"type":"Feature","geometry":{"type":"Point","coordinates":[0.32593,48.97588]},"properties":{"date":"1944-08-25","unit_country":"CAN","unit_type":"Armoured","unit_size":"Battalion","unit_name":"6th Canadian Armoured Regiment (1st Hussars)ÿ"}},{"type":"Feature","geometry":{"type":"Point","coordinates":[0.89755,49.20001]},"properties":{"date":"1944-08-25","unit_country":"CAN","unit_type":"Reconnaissance","unit_size":"Battalion","unit_name":"7th Reconnaissance Regiment (17th Duke of York's Royal Canadian Hussars)"}},{"type":"Feature","geometry":{"type":"Point","coordinates":[0.46205,49.07782]},"properties":{"date":"1944-08-25","unit_country":"CAN","unit_type":"Artillery","unit_size":"Battalion","unit_name":"12th Field Regiment Royal Canadian Artillery"}},{"type":"Feature","geometry":{"type":"Point","coordinates":[0.74035,49.16491]},"properties":{"date":"1944-08-25","unit_country":"CAN","unit_type":"Artillery","unit_size":"Battalion","unit_name":"13th Field Regiment Royal Canadian Artillery"}},{"type":"Feature","geometry":{"type":"Point","coordinates":[0.65612,49.15767]},"properties":{"date":"1944-08-25","unit_country":"CAN","unit_type":"Artillery","unit_size":"Battalion","unit_name":"14th Field Regiment Royal Canadian Artillery"}},{"type":"Feature","geometry":{"type":"Point","coordinates":[1.08047,49.20986]},"properties":{"date":"1944-08-25","unit_country":"CAN","unit_type":"Armoured","unit_size":"Battalion","unit_name":"22nd Armoured Regiment (Canadian Grenadier Guards)"}},{"type":"Feature","geometry":{"type":"Point","coordinates":[1.10169,49.20575]},"properties":{"date":"1944-08-25","unit_country":"CAN","unit_type":"Mechanized","unit_size":"Battalion","unit_name":"The Lake Superior Regiment"}},{"type":"Feature","geometry":{"type":"Point","coordinates":[1.06245,49.22162]},"properties":{"date":"1944-08-25","unit_country":"CAN","unit_type":"Infantry","unit_size":"Battalion","unit_name":"The Lincoln & Welland Regiment"}},{"type":"Feature","geometry":{"type":"Point","coordinates":[1.02994,49.21765]},"properties":{"date":"1944-08-25","unit_country":"CAN","unit_type":"Infantry","unit_size":"Battalion","unit_name":"The Algonquin Regiment"}},{"type":"Feature","geometry":{"type":"Point","coordinates":[1.15018,49.21132]},"properties":{"date":"1944-08-25","unit_country":"CAN","unit_type":"Infantry","unit_size":"Battalion","unit_name":"The Argyll & Sutherland Highlanders of Canada (Princess Louise's)"}},{"type":"Feature","geometry":{"type":"Point","coordinates":[0.75654,49.22736]},"properties":{"date":"1944-08-25","unit_country":"CAN","unit_type":"Armoured","unit_size":"Battalion","unit_name":"27th Canadian Armoured Regiment (The Sherbrooke Fusiliers)ÿ"}},{"type":"Feature","geometry":{"type":"Point","coordinates":[0.64872,49.12139]},"properties":{"date":"1944-08-25","unit_country":"CAN","unit_type":"Infantry","unit_size":"Brigade","unit_name":"5th Canadian Infantry Brigade"}},{"type":"Feature","geometry":{"type":"Point","coordinates":[-0.6407,49.3209]},"properties":{"date":"1944-08-25","unit_country":"CAN","unit_type":"Artillery","unit_size":"Battalion","unit_name":"19th Field Regiment Royal Canadian Artillery"}},{"type":"Feature","geometry":{"type":"Point","coordinates":[0.74473,49.20051]},"properties":{"date":"1944-08-25","unit_country":"CAN","unit_type":"Infantry","unit_size":"Battalion","unit_name":"The Royal Regiment of Canada"}},{"type":"Feature","geometry":{"type":"Point","coordinates":[0.3352,48.97725]},"properties":{"date":"1944-08-25","unit_country":"CAN","unit_type":"Armoured","unit_size":"Brigade","unit_name":"2nd Canadian Armoured Brigade"}},{"type":"Feature","geometry":{"type":"Point","coordinates":[1.06031,49.21755]},"properties":{"date":"1944-08-25","unit_country":"CAN","unit_type":"Artillery","unit_size":"Battalion","unit_name":"15th Field Regiment, Royal Canadian Artillery"}},{"type":"Feature","geometry":{"type":"Point","coordinates":[1.03966,49.27642]},"properties":{"date":"1944-08-25","unit_country":"CAN","unit_type":"Artillery","unit_size":"Battalion","unit_name":"23rd Field Regiment, Royal Canadian Artillery"}},{"type":"Feature","geometry":{"type":"Point","coordinates":[0.75853,49.22571]},"properties":{"date":"1944-08-25","unit_country":"CAN","unit_type":"Infantry","unit_size":"Battalion","unit_name":"Essex Scottish Regiment"}},{"type":"Feature","geometry":{"type":"Point","coordinates":[0.65038,49.18437]},"properties":{"date":"1944-08-25","unit_country":"CAN","unit_type":"Infantry","unit_size":"Battalion","unit_name":"The Calgary Highlanders"}},{"type":"Feature","geometry":{"type":"Point","coordinates":[0.61891,49.19824]},"properties":{"date":"1944-08-25","unit_country":"CAN","unit_type":"Infantry","unit_size":"Battalion","unit_name":"Royal Hamilton Light Infantry"}},{"type":"Feature","geometry":{"type":"Point","coordinates":[1.03297,49.21593]},"properties":{"date":"1944-08-25","unit_country":"CAN","unit_type":"Reconnaissance","unit_size":"Battalion","unit_name":"29th Reconnaissance Regiment (The South Alberta Regiment)"}},{"type":"Feature","geometry":{"type":"Point","coordinates":[0.72517,49.19824]},"properties":{"date":"1944-08-25","unit_country":"CAN","unit_type":"Infantry","unit_size":"Battalion","unit_name":"Queen's Own Cameron Highlanders of Canada"}},{"type":"Feature","geometry":{"type":"Point","coordinates":[0.65891,49.18329]},"properties":{"date":"1944-08-25","unit_country":"CAN","unit_type":"Infantry","unit_size":"Battalion","unit_name":"Le Regiment de Maisonneuve"}},{"type":"Feature","geometry":{"type":"Point","coordinates":[0.73053,49.17242]},"properties":{"date":"1944-08-25","unit_country":"CAN","unit_type":"Infantry","unit_size":"Battalion","unit_name":"Les Fusiliers Mont-Royal"}},{"type":"Feature","geometry":{"type":"Point","coordinates":[0.70575,49.1906]},"properties":{"date":"1944-08-25","unit_country":"CAN","unit_type":"Infantry","unit_size":"Battalion","unit_name":"The Black Watch (Royal Highalnders) of Canada"}},{"type":"Feature","geometry":{"type":"Point","coordinates":[0.70767,49.19561]},"properties":{"date":"1944-08-25","unit_country":"CAN","unit_type":"Infantry","unit_size":"Battalion","unit_name":"The South Sasketchewan Regiment"}},{"type":"Feature","geometry":{"type":"Point","coordinates":[1.104,49.20699]},"properties":{"date":"1944-08-25","unit_country":"CAN","unit_type":"Armoured","unit_size":"Battalion","unit_name":"28th Armoured Regiment (The British Columbia Regiment, Duke of Connaught's Own Rifles)"}},{"type":"Feature","geometry":{"type":"Point","coordinates":[0.31613,49.34023]},"properties":{"date":"1944-08-25","unit_country":"CAN","unit_type":"Airborne","unit_size":"Battalion","unit_name":"1st Canadian Parachute Battalion"}},{"type":"Feature","geometry":{"type":"Point","coordinates":[0.70541,49.18646]},"properties":{"date":"1944-08-25","unit_country":"CAN","unit_type":"Engineer","unit_size":"Company","unit_name":"6th Field Company, Royal Canadian Engineers"}},{"type":"Feature","geometry":{"type":"Point","coordinates":[0.62585,49.14008]},"properties":{"date":"1944-08-25","unit_country":"CAN","unit_type":"Infantry","unit_size":"Division","unit_name":"3rd Canadian Infantry Division"}},{"type":"Feature","geometry":{"type":"Point","coordinates":[0.66471,49.14239]},"properties":{"date":"1944-08-25","unit_country":"CAN","unit_type":"Armoured","unit_size":"Battalion","unit_name":"10th Canadian Armoured Regiment (The Fort Garry Horse)"}},{"type":"Feature","geometry":{"type":"Point","coordinates":[0.67454,49.20633]},"properties":{"date":"1944-08-25","unit_country":"CAN","unit_type":"Artillery","unit_size":"Battalion","unit_name":"5th Field Regiment, Royal Canadian Artillery"}},{"type":"Feature","geometry":{"type":"Point","coordinates":[0.67759,49.2038]},"properties":{"date":"1944-08-25","unit_country":"CAN","unit_type":"Artillery","unit_size":"Battalion","unit_name":"6th Field Regiment, Royal Canadian Artillery"}},{"type":"Feature","geometry":{"type":"Point","coordinates":[0.68078,49.2063]},"properties":{"date":"1944-08-25","unit_country":"CAN","unit_type":"Artillery","unit_size":"Battalion","unit_name":"4th Field Regiment, Royal Canadian Artillery"}},{"type":"Feature","geometry":{"type":"Point","coordinates":[0.70995,49.17113]},"properties":{"date":"1944-08-25","unit_country":"CAN","unit_type":"Reconnaissance","unit_size":"Battalion","unit_name":"8th Reconnaissance Regiment (14th Canadian Hussars)"}},{"type":"Feature","geometry":{"type":"Point","coordinates":[0.77145,49.19348]},"properties":{"date":"1944-08-25","unit_country":"Can","unit_type":"Infantry","unit_size":"Battalion","unit_name":"Regiment de la Chaudiere"}},{"type":"Feature","geometry":{"type":"Point","coordinates":[0.70578,49.17907]},"properties":{"date":"1944-08-25","unit_country":"CAN","unit_type":"Engineer","unit_size":"Company","unit_name":"18th Field Company Royal Canadian Engineers"}},{"type":"Feature","geometry":{"type":"Point","coordinates":[0.07097,49.2953]},"properties":{"date":"1944-08-25","unit_country":"CAN","unit_type":"Engineer","unit_size":"Company","unit_name":"5th Field Company Royal Canadian Engineers"}},{"type":"Feature","geometry":{"type":"Point","coordinates":[0.65337,49.15114]},"properties":{"date":"1944-08-25","unit_country":"CAN","unit_type":"Engineer","unit_size":"Company","unit_name":"16th Field Company Royal Canadian Engineers"}},{"type":"Feature","geometry":{"type":"Point","coordinates":[0.67743,49.20429]},"properties":{"date":"1944-08-25","unit_country":"CAN","unit_type":"Infantry","unit_size":"Battalion","unit_name":"Toronto Scottish Regiment"}},{"type":"Feature","geometry":{"type":"Point","coordinates":[0.74901,49.215]},"properties":{"date":"1944-08-25","unit_country":"CAN","unit_type":"Infantry","unit_size":"Platoon","unit_name":"Toronto Scottish Regiment"}},{"type":"Feature","geometry":{"type":"Point","coordinates":[0.74141,49.21996]},"properties":{"date":"1944-08-25","unit_country":"CAN","unit_type":"Infantry","unit_size":"Platoon","unit_name":"Toronto Scottish Regiment"}},{"type":"Feature","geometry":{"type":"Point","coordinates":[0.63788,49.18197]},"properties":{"date":"1944-08-25","unit_country":"CAN","unit_type":"Infantry","unit_size":"Company","unit_name":"Toronto Scottish Regiment"}},{"type":"Feature","geometry":{"type":"Point","coordinates":[0.71725,49.19589]},"properties":{"date":"1944-08-25","unit_country":"CAN","unit_type":"Infantry","unit_size":"Company","unit_name":"Toronto Scottish Regiment"}},{"type":"Feature","geometry":{"type":"Point","coordinates":[1.05723,49.21366]},"properties":{"date":"1944-08-25","unit_country":"CAN","unit_type":"Engineer","unit_size":"Company","unit_name":"6th Field Park Squadron"}},{"type":"Feature","geometry":{"type":"Point","coordinates":[0.48889,49.26667]},"properties":{"date":"1944-08-25","unit_country":"CAN","unit_type":"Infantry","unit_size":"Battalion","unit_name":"The Cameron Highlanders of Ottawa (Duke of Edinburgh's Own)"}}]}