{"type":"FeatureCollection","features":[{"type":"Feature","geometry":{"type":"Point","coordinates":[-1.38034,49.53442]},"properties":{"date":"1944-06-18","unit_country":"GMN","unit_type":"Infantry","unit_size":"Division","unit_name":"709th Infantry Division"}},{"type":"Feature","geometry":{"type":"Point","coordinates":[-1.7489,49.45064]},"properties":{"date":"1944-06-18","unit_country":"GMN","unit_type":"Infantry","unit_size":"Division","unit_name":"243rd Infantry Division"}},{"type":"Feature","geometry":{"type":"Point","coordinates":[-1.51082,49.34663]},"properties":{"date":"1944-06-18","unit_country":"GMN","unit_type":"Infantry","unit_size":"Division","unit_name":"91st Infantry Division"}},{"type":"Feature","geometry":{"type":"Point","coordinates":[-1.32589,49.49806]},"properties":{"date":"1944-06-18","unit_country":"USA","unit_type":"Infantry","unit_size":"Division","unit_name":"4th Infantry Division"}},{"type":"Feature","geometry":{"type":"Point","coordinates":[-1.47591,49.4318]},"properties":{"date":"1944-06-18","unit_country":"USA","unit_type":"Infantry","unit_size":"Division","unit_name":"90th Infantry Division"}},{"type":"Feature","geometry":{"type":"Point","coordinates":[-1.48085,49.39579]},"properties":{"date":"1944-06-18","unit_country":"USA","unit_type":"Airborne","unit_size":"Division","unit_name":"82nd Airborne Division"}},{"type":"Feature","geometry":{"type":"Point","coordinates":[-1.30355,49.30409]},"properties":{"date":"1944-06-18","unit_country":"USA","unit_type":"Airborne","unit_size":"Division","unit_name":"101st Airborne Division"}},{"type":"Feature","geometry":{"type":"Point","coordinates":[-1.31428,49.42796]},"properties":{"date":"1944-06-18","unit_country":"USA","unit_type":"Infantry","unit_size":"Corp","unit_name":"Seventh Corps"}},{"type":"Feature","geometry":{"type":"Point","coordinates":[-1.6998,49.3831]},"properties":{"date":"1944-06-18","unit_country":"USA","unit_type":"Infantry","unit_size":"Division","unit_name":"9th Infantry Division"}},{"type":"Feature","geometry":{"type":"Point","coordinates":[-1.45178,49.31595]},"properties":{"date":"1944-06-18","unit_country":"GMN","unit_type":"Infantry","unit_size":"Division","unit_name":"265th Infantry Division"}},{"type":"Feature","geometry":{"type":"Point","coordinates":[-1.2508,49.26924]},"properties":{"date":"1944-06-18","unit_country":"GMN","unit_type":"Armoured","unit_size":"Division","unit_name":"17th Panzer Division"}},{"type":"Feature","geometry":{"type":"Point","coordinates":[-1.07518,49.15521]},"properties":{"date":"1944-06-18","unit_country":"GMN","unit_type":"Infantry","unit_size":"Division","unit_name":"352nd Infantry Division"}},{"type":"Feature","geometry":{"type":"Point","coordinates":[-0.88992,49.07735]},"properties":{"date":"1944-06-18","unit_country":"GMN","unit_type":"Airborne","unit_size":"Division","unit_name":"3rd Fallschirmjäger Division"}},{"type":"Feature","geometry":{"type":"Point","coordinates":[-1.09291,49.11832]},"properties":{"date":"1944-06-18","unit_country":"GMN","unit_type":"Infantry","unit_size":"Corp","unit_name":"84th Corps"}},{"type":"Feature","geometry":{"type":"Point","coordinates":[-1.039,49.18557]},"properties":{"date":"1944-06-18","unit_country":"USA","unit_type":"Infantry","unit_size":"Division","unit_name":"29th Infantry Division"}},{"type":"Feature","geometry":{"type":"Point","coordinates":[-0.95144,49.16533]},"properties":{"date":"1944-06-18","unit_country":"USA","unit_type":"Infantry","unit_size":"Division","unit_name":"2nd Infantry Division"}},{"type":"Feature","geometry":{"type":"Point","coordinates":[-0.83842,49.11547]},"properties":{"date":"1944-06-18","unit_country":"USA","unit_type":"Infantry","unit_size":"Division","unit_name":"1st Infantry Division"}},{"type":"Feature","geometry":{"type":"Point","coordinates":[-0.99726,49.39232]},"properties":{"date":"1944-06-18","unit_country":"USA","unit_type":"Infantry","unit_size":"Army","unit_name":"First Army"}},{"type":"Feature","geometry":{"type":"Point","coordinates":[-0.8878,49.17472]},"properties":{"date":"1944-06-18","unit_country":"USA","unit_type":"Armoured","unit_size":"Division","unit_name":"2nd Armoured Division"}},{"type":"Feature","geometry":{"type":"Point","coordinates":[-0.69343,49.20325]},"properties":{"date":"1944-06-18","unit_country":"GB","unit_type":"Infantry","unit_size":"Division","unit_name":"50th Infantry Division"}},{"type":"Feature","geometry":{"type":"Point","coordinates":[-0.6493,49.11647]},"properties":{"date":"1944-06-18","unit_country":"GMN","unit_type":"Armoured","unit_size":"Division","unit_name":"Panzer Lehr Division"}},{"type":"Feature","geometry":{"type":"Point","coordinates":[-0.57656,49.17351]},"properties":{"date":"1944-06-18","unit_country":"GMN","unit_type":"Armoured","unit_size":"Division","unit_name":"12th Panzer Division"}},{"type":"Feature","geometry":{"type":"Point","coordinates":[-0.76371,49.12414]},"properties":{"date":"1944-06-18","unit_country":"GB","unit_type":"Armoured","unit_size":"Division","unit_name":"7th Armoured Division"}},{"type":"Feature","geometry":{"type":"Point","coordinates":[-0.2307,49.22277]},"properties":{"date":"1944-06-18","unit_country":"GB","unit_type":"Infantry","unit_size":"Division","unit_name":"51st Infantry Division"}},{"type":"Feature","geometry":{"type":"Point","coordinates":[-0.43297,49.20327]},"properties":{"date":"1944-06-18","unit_country":"GMN","unit_type":"Infantry","unit_size":"Division","unit_name":"716th Infantry Division"}},{"type":"Feature","geometry":{"type":"Point","coordinates":[-0.346,49.20473]},"properties":{"date":"1944-06-18","unit_country":"GMN","unit_type":"Infantry","unit_size":"Division","unit_name":"21st Infantry Division"}},{"type":"Feature","geometry":{"type":"Point","coordinates":[-0.33648,49.24053]},"properties":{"date":"1944-06-18","unit_country":"GB","unit_type":"Infantry","unit_size":"Division","unit_name":"3rd Infantry Division"}},{"type":"Feature","geometry":{"type":"Point","coordinates":[-0.2512,49.24873]},"properties":{"date":"1944-06-18","unit_country":"GB","unit_type":"Airborne","unit_size":"Division","unit_name":"6th Airborne Division"}},{"type":"Feature","geometry":{"type":"Point","coordinates":[-0.33685,49.3051]},"properties":{"date":"1944-06-18","unit_country":"GB","unit_type":"Infantry","unit_size":"Corp","unit_name":"First Corps"}},{"type":"Feature","geometry":{"type":"Point","coordinates":[-0.16634,49.25263]},"properties":{"date":"1944-06-18","unit_country":"GMN","unit_type":"Infantry","unit_size":"Division","unit_name":"711th Infantry Division"}},{"type":"Feature","geometry":{"type":"Point","coordinates":[-0.16757,49.17302]},"properties":{"date":"1944-06-18","unit_country":"GMN","unit_type":"Infantry","unit_size":"Division","unit_name":"346th Infantry Division"}},{"type":"Feature","geometry":{"type":"Point","coordinates":[-0.58775,49.22462]},"properties":{"date":"1944-06-18","unit_country":"GB","unit_type":"Infantry","unit_size":"Division","unit_name":"49th Infantry Division"}},{"type":"Feature","geometry":{"type":"Point","coordinates":[-1.50743,49.49258]},"properties":{"date":"1944-06-18","unit_country":"GMN","unit_type":"Infantry","unit_size":"Division","unit_name":"77th Infantry Division"}},{"type":"Feature","geometry":{"type":"Point","coordinates":[-1.00117,49.11766]},"properties":{"date":"1944-06-18","unit_country":"GMN","unit_type":"Infantry","unit_size":"Division","unit_name":"353rd Infantry Division"}},{"type":"Feature","geometry":{"type":"Point","coordinates":[-0.94955,49.01589]},"properties":{"date":"1944-06-18","unit_country":"GMN","unit_type":"Armoured","unit_size":"Division","unit_name":"2nd SS Panzer Division"}},{"type":"Feature","geometry":{"type":"Point","coordinates":[-1.11761,49.27284]},"properties":{"date":"1944-06-18","unit_country":"USA","unit_type":"Infantry","unit_size":"Division","unit_name":"30th Infantry Division"}},{"type":"Feature","geometry":{"type":"Point","coordinates":[-1.30731,49.04927]},"properties":{"date":"1944-06-18","unit_country":"GMN","unit_type":"Infantry","unit_size":"Division","unit_name":"245th Infantry Division"}},{"type":"Feature","geometry":{"type":"Point","coordinates":[-1.40345,49.36894]},"properties":{"date":"1944-06-18","unit_country":"USA","unit_type":"Infantry","unit_size":"Division","unit_name":"79th Infantry Division"}},{"type":"Feature","geometry":{"type":"Point","coordinates":[-0.50328,49.2476]},"properties":{"date":"1944-06-18","unit_country":"GB","unit_type":"Armoured","unit_size":"Division","unit_name":"11th Armoured Division"}},{"type":"Feature","geometry":{"type":"Point","coordinates":[-1.19389,49.25316]},"properties":{"date":"1944-06-18","unit_country":"GMN","unit_type":"Infantry","unit_size":"Division","unit_name":"275th Infantry Division"}},{"type":"Feature","geometry":{"type":"Point","coordinates":[-1.31189,49.5372]},"properties":{"date":"1944-06-18","unit_country":"GMN","unit_type":"Infantry","unit_size":"Division","unit_name":"319th Infantry Division"}},{"type":"Feature","geometry":{"type":"Point","coordinates":[-0.75703,49.05484]},"properties":{"date":"1944-06-18","unit_country":"GMN","unit_type":"Armoured","unit_size":"Division","unit_name":"2nd Panzer Division"}},{"type":"Feature","geometry":{"type":"Point","coordinates":[-0.65178,49.22911]},"properties":{"date":"1944-06-18","unit_country":"GB","unit_type":"Infantry","unit_size":"Corp","unit_name":"Thirty Corps"}},{"type":"Feature","geometry":{"type":"Point","coordinates":[-0.50168,49.27821]},"properties":{"date":"1944-06-18","unit_country":"GB","unit_type":"Infantry","unit_size":"Corp","unit_name":"Eigth Corps"}},{"type":"Feature","geometry":{"type":"Point","coordinates":[-0.6109,48.87505]},"properties":{"date":"1944-06-18","unit_country":"GMN","unit_type":"Armoured","unit_size":"Corp","unit_name":"Second SS Panzer Corps"}},{"type":"Feature","geometry":{"type":"Point","coordinates":[-0.35848,48.95565]},"properties":{"date":"1944-06-18","unit_country":"GMN","unit_type":"Armoured","unit_size":"Corp","unit_name":"First SS Panzer Corps"}},{"type":"Feature","geometry":{"type":"Point","coordinates":[-1.29147,49.36996]},"properties":{"date":"1944-06-18","unit_country":"USA","unit_type":"Infantry","unit_size":"Corp","unit_name":"Eighth Corps"}},{"type":"Feature","geometry":{"type":"Point","coordinates":[-0.88646,49.29096]},"properties":{"date":"1944-06-18","unit_country":"USA","unit_type":"Infantry","unit_size":"Corp","unit_name":"Fifth Corps"}},{"type":"Feature","geometry":{"type":"Point","coordinates":[-0.54555,49.28787]},"properties":{"date":"1944-06-18","unit_country":"GB","unit_type":"Infantry","unit_size":"Army Group","unit_name":"Twenty-First Army Group"}},{"type":"Feature","geometry":{"type":"Point","coordinates":[-0.52624,49.31256]},"properties":{"date":"1944-06-18","unit_country":"GB","unit_type":"Infantry","unit_size":"Army","unit_name":"Second Army"}},{"type":"Feature","geometry":{"type":"Point","coordinates":[-1.05156,49.28269]},"properties":{"date":"1944-06-18","unit_country":"USA","unit_type":"Infantry","unit_size":"Corp","unit_name":"Nineteenth Corps"}},{"type":"Feature","geometry":{"type":"Point","coordinates":[-0.41061,49.26637]},"properties":{"date":"1944-06-18","unit_country":"CAN","unit_type":"Infantry","unit_size":"Brigade","unit_name":"9th Canadian Infantry Brigade"}},{"type":"Feature","geometry":{"type":"Point","coordinates":[-0.52056,49.23519]},"properties":{"date":"1944-06-18","unit_country":"CAN","unit_type":"Infantry","unit_size":"Brigade","unit_name":"8th Canadian Infantry Brigade"}},{"type":"Feature","geometry":{"type":"Point","coordinates":[-0.5204,49.23434]},"properties":{"date":"1944-06-18","unit_country":"CAN","unit_type":"Infantry","unit_size":"Brigade","unit_name":"7th Canadian Infantry Brigade"}},{"type":"Feature","geometry":{"type":"Point","coordinates":[-0.5144,49.21019]},"properties":{"date":"1944-06-18","unit_country":"CAN","unit_type":"Infantry","unit_size":"Battalion","unit_name":"The Queen?s Own Rifles of Canadaÿ"}},{"type":"Feature","geometry":{"type":"Point","coordinates":[-0.41689,49.23621]},"properties":{"date":"1944-06-18","unit_country":"CAN","unit_type":"Infantry","unit_size":"Battalion","unit_name":"The North Nova Scotia Highlanders"}},{"type":"Feature","geometry":{"type":"Point","coordinates":[-0.54762,49.19466]},"properties":{"date":"1944-06-18","unit_country":"CAN","unit_type":"Infantry","unit_size":"Battalion","unit_name":"North Shore (New Brunswick) Regiment"}},{"type":"Feature","geometry":{"type":"Point","coordinates":[-0.48039,49.21125]},"properties":{"date":"1944-06-18","unit_country":"CAN","unit_type":"Infantry","unit_size":"Battalion","unit_name":"The Canadian Scottish Regiment"}},{"type":"Feature","geometry":{"type":"Point","coordinates":[-0.48901,49.22597]},"properties":{"date":"1944-06-18","unit_country":"CAN","unit_type":"Infantry","unit_size":"Battalion","unit_name":"The Regina Rifles"}},{"type":"Feature","geometry":{"type":"Point","coordinates":[-0.54029,49.19624]},"properties":{"date":"1944-06-18","unit_country":"CAN","unit_type":"Infantry","unit_size":"Battalion","unit_name":"The Royal Winnipeg Rifles"}},{"type":"Feature","geometry":{"type":"Point","coordinates":[-0.41626,49.23396]},"properties":{"date":"1944-06-18","unit_country":"CAN","unit_type":"Infantry","unit_size":"Battalion","unit_name":"Highland Light Infantry of Canada"}},{"type":"Feature","geometry":{"type":"Point","coordinates":[-0.44295,49.2373]},"properties":{"date":"1944-06-18","unit_country":"CAN","unit_type":"Infantry","unit_size":"Battalion","unit_name":"Stormont, Dundas & Glengarry Highlanders"}},{"type":"Feature","geometry":{"type":"Point","coordinates":[-0.49853,49.24266]},"properties":{"date":"1944-06-18","unit_country":"CAN","unit_type":"Armoured","unit_size":"Battalion","unit_name":"6th Canadian Armoured Regiment (1st Hussars)ÿ"}},{"type":"Feature","geometry":{"type":"Point","coordinates":[-0.52831,49.22154]},"properties":{"date":"1944-06-18","unit_country":"CAN","unit_type":"Artillery","unit_size":"Battalion","unit_name":"12th Field Regiment Royal Canadian Artillery"}},{"type":"Feature","geometry":{"type":"Point","coordinates":[-0.51019,49.21556]},"properties":{"date":"1944-06-18","unit_country":"CAN","unit_type":"Artillery","unit_size":"Battalion","unit_name":"13th Field Regiment Royal Canadian Artillery"}},{"type":"Feature","geometry":{"type":"Point","coordinates":[-0.48253,49.23193]},"properties":{"date":"1944-06-18","unit_country":"CAN","unit_type":"Artillery","unit_size":"Battalion","unit_name":"14th Field Regiment Royal Canadian Artillery"}},{"type":"Feature","geometry":{"type":"Point","coordinates":[-0.40853,49.26447]},"properties":{"date":"1944-06-18","unit_country":"CAN","unit_type":"Armoured","unit_size":"Battalion","unit_name":"27th Canadian Armoured Regiment (The Sherbrooke Fusiliers)ÿ"}},{"type":"Feature","geometry":{"type":"Point","coordinates":[-0.41941,49.27224]},"properties":{"date":"1944-06-18","unit_country":"CAN","unit_type":"Artillery","unit_size":"Battalion","unit_name":"19th Field Regiment Royal Canadian Artillery"}},{"type":"Feature","geometry":{"type":"Point","coordinates":[-0.4877,49.26029]},"properties":{"date":"1944-06-18","unit_country":"CAN","unit_type":"Armoured","unit_size":"Brigade","unit_name":"2nd Canadian Armoured Brigade"}},{"type":"Feature","geometry":{"type":"Point","coordinates":[-0.25816,49.23271]},"properties":{"date":"1944-06-18","unit_country":"CAN","unit_type":"Airborne","unit_size":"Battalion","unit_name":"1st Canadian Parachute Battalion"}},{"type":"Feature","geometry":{"type":"Point","coordinates":[-0.47625,49.24845]},"properties":{"date":"1944-06-18","unit_country":"CAN","unit_type":"Engineer","unit_size":"Company","unit_name":"6th Field Company, Royal Canadian Engineers"}},{"type":"Feature","geometry":{"type":"Point","coordinates":[-0.48636,49.25082]},"properties":{"date":"1944-06-18","unit_country":"CAN","unit_type":"Infantry","unit_size":"Division","unit_name":"3rd Canadian Infantry Division"}},{"type":"Feature","geometry":{"type":"Point","coordinates":[-0.47249,49.24526]},"properties":{"date":"1944-06-18","unit_country":"CAN","unit_type":"Armoured","unit_size":"Battalion","unit_name":"10th Canadian Armoured Regiment (The Fort Garry Horse)"}},{"type":"Feature","geometry":{"type":"Point","coordinates":[-0.54117,49.21337]},"properties":{"date":"1944-06-18","unit_country":"Can","unit_type":"Infantry","unit_size":"Battalion","unit_name":"Regiment de la Chaudiere"}},{"type":"Feature","geometry":{"type":"Point","coordinates":[-0.41576,49.26403]},"properties":{"date":"1944-06-18","unit_country":"CAN","unit_type":"Engineer","unit_size":"Company","unit_name":"18th Field Company Royal Canadian Engineers"}},{"type":"Feature","geometry":{"type":"Point","coordinates":[-0.452,49.23998]},"properties":{"date":"1944-06-18","unit_country":"CAN","unit_type":"Engineer","unit_size":"Company","unit_name":"5th Field Company Royal Canadian Engineers"}},{"type":"Feature","geometry":{"type":"Point","coordinates":[-0.48662,49.25176]},"properties":{"date":"1944-06-18","unit_country":"CAN","unit_type":"Engineer","unit_size":"Company","unit_name":"16th Field Company Royal Canadian Engineers"}},{"type":"Feature","geometry":{"type":"Point","coordinates":[-0.485,49.25222]},"properties":{"date":"1944-06-18","unit_country":"CAN","unit_type":"Infantry","unit_size":"Battalion","unit_name":"The Cameron Highlanders of Ottawa (Duke of Edinburgh's Own)"}},{"type":"Feature","geometry":{"type":"Point","coordinates":[-0.47317,49.18194]},"properties":{"date":"1944-06-18","unit_country":"CAN","unit_type":"Infantry","unit_size":"Company","unit_name":"The Cameron Highlanders of Ottawa (Duke of Edinburgh's Own)"}},{"type":"Feature","geometry":{"type":"Point","coordinates":[-0.5175,49.21806]},"properties":{"date":"1944-06-18","unit_country":"CAN","unit_type":"Infantry","unit_size":"Company","unit_name":"The Cameron Highlanders of Ottawa (Duke of Edinburgh's Own)"}},{"type":"Feature","geometry":{"type":"Point","coordinates":[-0.5175,49.21806]},"properties":{"date":"1944-06-18","unit_country":"CAN","unit_type":"Infantry","unit_size":"Platoon","unit_name":"The Cameron Highlanders of Ottawa (Duke of Edinburgh's Own)"}},{"type":"Feature","geometry":{"type":"Point","coordinates":[-0.51,49.21028]},"properties":{"date":"1944-06-18","unit_country":"CAN","unit_type":"Infantry","unit_size":"Platoon","unit_name":"The Cameron Highlanders of Ottawa (Duke of Edinburgh's Own)"}},{"type":"Feature","geometry":{"type":"Point","coordinates":[-0.55167,49.19222]},"properties":{"date":"1944-06-18","unit_country":"CAN","unit_type":"Infantry","unit_size":"Platoon","unit_name":"The Cameron Highlanders of Ottawa (Duke of Edinburgh's Own)"}},{"type":"Feature","geometry":{"type":"Point","coordinates":[-0.42008,49.24372]},"properties":{"date":"1944-06-18","unit_country":"CAN","unit_type":"Infantry","unit_size":"Company","unit_name":"The Cameron Highlanders of Ottawa (Duke of Edinburgh's Own)"}},{"type":"Feature","geometry":{"type":"Point","coordinates":[-0.54172,49.19389]},"properties":{"date":"1944-06-18","unit_country":"CAN","unit_type":"Infantry","unit_size":"Company","unit_name":"The Cameron Highlanders of Ottawa (Duke of Edinburgh's Own)"}},{"type":"Feature","geometry":{"type":"Point","coordinates":[-0.41158,49.26453]},"properties":{"date":"1944-06-18","unit_country":"CAN","unit_type":"Infantry","unit_size":"Company","unit_name":"The Cameron Highlanders of Ottawa (Duke of Edinburgh's Own)"}}]}