{"type":"FeatureCollection","features":[{"type":"Feature","geometry":{"type":"Point","coordinates":[-0.65532,49.10092]},"properties":{"date":"1944-08-27","unit_country":"GB","unit_type":"Infantry","unit_size":"Army Group","unit_name":"Twenty-First Army Group"}},{"type":"Feature","geometry":{"type":"Point","coordinates":[-0.70386,48.91782]},"properties":{"date":"1944-08-27","unit_country":"GB","unit_type":"Infantry","unit_size":"Division","unit_name":"3rd Infantry Division"}},{"type":"Feature","geometry":{"type":"Point","coordinates":[-0.49123,48.77047]},"properties":{"date":"1944-08-27","unit_country":"GB","unit_type":"Infantry","unit_size":"Corp","unit_name":"Eigth Corps"}},{"type":"Feature","geometry":{"type":"Point","coordinates":[0.40674,49.37053]},"properties":{"date":"1944-08-27","unit_country":"GB","unit_type":"Airborne","unit_size":"Division","unit_name":"6th Airborne Division"}},{"type":"Feature","geometry":{"type":"Point","coordinates":[0.43386,49.1772]},"properties":{"date":"1944-08-27","unit_country":"CAN","unit_type":"Infantry","unit_size":"Army","unit_name":"First Army"}},{"type":"Feature","geometry":{"type":"Point","coordinates":[0.46242,49.31009]},"properties":{"date":"1944-08-27","unit_country":"GB","unit_type":"Infantry","unit_size":"Division","unit_name":"49th Infantry Division"}},{"type":"Feature","geometry":{"type":"Point","coordinates":[0.59924,49.28606]},"properties":{"date":"1944-08-27","unit_country":"GB","unit_type":"Infantry","unit_size":"Division","unit_name":"51st Infantry Division"}},{"type":"Feature","geometry":{"type":"Point","coordinates":[-0.15422,49.09856]},"properties":{"date":"1944-08-27","unit_country":"GB","unit_type":"Infantry","unit_size":"Corp","unit_name":"First Corps"}},{"type":"Feature","geometry":{"type":"Point","coordinates":[0.18807,49.00897]},"properties":{"date":"1944-08-27","unit_country":"CAN","unit_type":"Infantry","unit_size":"Corp","unit_name":"Second Corps"}},{"type":"Feature","geometry":{"type":"Point","coordinates":[0.13536,48.93426]},"properties":{"date":"1944-08-27","unit_country":"POL","unit_type":"Armoured","unit_size":"Division","unit_name":"1st Armoured Division"}},{"type":"Feature","geometry":{"type":"Point","coordinates":[0.83016,49.27452]},"properties":{"date":"1944-08-27","unit_country":"GB","unit_type":"Armoured","unit_size":"Division","unit_name":"7th Armoured Division"}},{"type":"Feature","geometry":{"type":"Point","coordinates":[0.68704,48.9803]},"properties":{"date":"1944-08-27","unit_country":"GB","unit_type":"Infantry","unit_size":"Division","unit_name":"7th Infantry Division"}},{"type":"Feature","geometry":{"type":"Point","coordinates":[0.46682,48.87168]},"properties":{"date":"1944-08-27","unit_country":"GB","unit_type":"Infantry","unit_size":"Division","unit_name":"53rd Infantry Division"}},{"type":"Feature","geometry":{"type":"Point","coordinates":[1.11284,49.18553]},"properties":{"date":"1944-08-27","unit_country":"GB","unit_type":"Infantry","unit_size":"Division","unit_name":"15th Infantry Division"}},{"type":"Feature","geometry":{"type":"Point","coordinates":[1.44668,49.10463]},"properties":{"date":"1944-08-27","unit_country":"GB","unit_type":"Infantry","unit_size":"Division","unit_name":"43rd Infantry Division"}},{"type":"Feature","geometry":{"type":"Point","coordinates":[1.46596,49.04704]},"properties":{"date":"1944-08-27","unit_country":"GB","unit_type":"Infantry","unit_size":"Division","unit_name":"50th Infantry Division"}},{"type":"Feature","geometry":{"type":"Point","coordinates":[-0.54171,48.86335]},"properties":{"date":"1944-08-27","unit_country":"GB","unit_type":"Armoured","unit_size":"Division","unit_name":"Guards Division"}},{"type":"Feature","geometry":{"type":"Point","coordinates":[1.27179,49.02967]},"properties":{"date":"1944-08-27","unit_country":"GB","unit_type":"Infantry","unit_size":"Corp","unit_name":"Thirty Corps"}},{"type":"Feature","geometry":{"type":"Point","coordinates":[1.14281,48.64759]},"properties":{"date":"1944-08-27","unit_country":"USA","unit_type":"Infantry","unit_size":"Army","unit_name":"First Army"}},{"type":"Feature","geometry":{"type":"Point","coordinates":[1.66036,48.97376]},"properties":{"date":"1944-08-27","unit_country":"USA","unit_type":"Infantry","unit_size":"Corp","unit_name":"Fifteenth Corps"}},{"type":"Feature","geometry":{"type":"Point","coordinates":[1.0743,48.52225]},"properties":{"date":"1944-08-27","unit_country":"USA","unit_type":"Infantry","unit_size":"Corp","unit_name":"Eighth Corps"}},{"type":"Feature","geometry":{"type":"Point","coordinates":[2.54361,48.08407]},"properties":{"date":"1944-08-27","unit_country":"USA","unit_type":"Infantry","unit_size":"Corp","unit_name":"Twelfth Corps"}},{"type":"Feature","geometry":{"type":"Point","coordinates":[2.10365,48.01031]},"properties":{"date":"1944-08-27","unit_country":"USA","unit_type":"Infantry","unit_size":"Army","unit_name":"Third Army"}},{"type":"Feature","geometry":{"type":"Point","coordinates":[-0.41453,48.5658]},"properties":{"date":"1944-08-27","unit_country":"USA","unit_type":"Infantry","unit_size":"Army","unit_name":"First Army"}},{"type":"Feature","geometry":{"type":"Point","coordinates":[0.30311,48.82147]},"properties":{"date":"1944-08-27","unit_country":"GB","unit_type":"Infantry","unit_size":"Army","unit_name":"Second Army"}},{"type":"Feature","geometry":{"type":"Point","coordinates":[1.57327,49.00445]},"properties":{"date":"1944-08-27","unit_country":"USA","unit_type":"Infantry","unit_size":"Division","unit_name":"79th Infantry Division"}},{"type":"Feature","geometry":{"type":"Point","coordinates":[1.76642,48.79476]},"properties":{"date":"1944-08-27","unit_country":"USA","unit_type":"Infantry","unit_size":"Division","unit_name":"30th Infantry Division"}},{"type":"Feature","geometry":{"type":"Point","coordinates":[2.34689,48.81713]},"properties":{"date":"1944-08-27","unit_country":"FRE","unit_type":"Armoured","unit_size":"Division","unit_name":"2nd Armoured Division"}},{"type":"Feature","geometry":{"type":"Point","coordinates":[1.05794,48.95787]},"properties":{"date":"1944-08-27","unit_country":"USA","unit_type":"Infantry","unit_size":"Division","unit_name":"28th Infantry Division"}},{"type":"Feature","geometry":{"type":"Point","coordinates":[2.57449,48.88423]},"properties":{"date":"1944-08-27","unit_country":"USA","unit_type":"Infantry","unit_size":"Division","unit_name":"4th Infantry Division"}},{"type":"Feature","geometry":{"type":"Point","coordinates":[2.19425,48.48591]},"properties":{"date":"1944-08-27","unit_country":"USA","unit_type":"Infantry","unit_size":"Division","unit_name":"1st Infantry Division"}},{"type":"Feature","geometry":{"type":"Point","coordinates":[2.99113,48.61487]},"properties":{"date":"1944-08-27","unit_country":"USA","unit_type":"Infantry","unit_size":"Division","unit_name":"9th Infantry Division"}},{"type":"Feature","geometry":{"type":"Point","coordinates":[2.31346,48.48091]},"properties":{"date":"1944-08-27","unit_country":"USA","unit_type":"Armoured","unit_size":"Division","unit_name":"3rd Armoured Division"}},{"type":"Feature","geometry":{"type":"Point","coordinates":[2.82576,48.01097]},"properties":{"date":"1944-08-27","unit_country":"USA","unit_type":"Infantry","unit_size":"Division","unit_name":"35th Infantry Division"}},{"type":"Feature","geometry":{"type":"Point","coordinates":[3.70836,48.43528]},"properties":{"date":"1944-08-27","unit_country":"USA","unit_type":"Infantry","unit_size":"Division","unit_name":"80th Infantry Division"}},{"type":"Feature","geometry":{"type":"Point","coordinates":[0.92225,49.09856]},"properties":{"date":"1944-08-27","unit_country":"USA","unit_type":"Armoured","unit_size":"Division","unit_name":"2nd Armoured Division"}},{"type":"Feature","geometry":{"type":"Point","coordinates":[1.69486,48.90582]},"properties":{"date":"1944-08-27","unit_country":"USA","unit_type":"Armoured","unit_size":"Division","unit_name":"5th Armoured Division"}},{"type":"Feature","geometry":{"type":"Point","coordinates":[0.61946,48.80755]},"properties":{"date":"1944-08-27","unit_country":"GB","unit_type":"Armoured","unit_size":"Division","unit_name":"11th Armoured Division"}},{"type":"Feature","geometry":{"type":"Point","coordinates":[2.57056,48.30316]},"properties":{"date":"1944-08-27","unit_country":"USA","unit_type":"Infantry","unit_size":"Division","unit_name":"90th Infantry Division"}},{"type":"Feature","geometry":{"type":"Point","coordinates":[2.66318,48.42826]},"properties":{"date":"1944-08-27","unit_country":"USA","unit_type":"Infantry","unit_size":"Corp","unit_name":"Twentieth Corps"}},{"type":"Feature","geometry":{"type":"Point","coordinates":[-0.76513,48.05253]},"properties":{"date":"1944-08-27","unit_country":"USA","unit_type":"Infantry","unit_size":"Army Group","unit_name":"Twelfth Army Group"}},{"type":"Feature","geometry":{"type":"Point","coordinates":[3.47,48.48638]},"properties":{"date":"1944-08-27","unit_country":"USA","unit_type":"Infantry","unit_size":"Division","unit_name":"5th Infantry Division"}},{"type":"Feature","geometry":{"type":"Point","coordinates":[2.88905,48.52683]},"properties":{"date":"1944-08-27","unit_country":"USA","unit_type":"Armoured","unit_size":"Division","unit_name":"7th Armoured Division"}},{"type":"Feature","geometry":{"type":"Point","coordinates":[3.54935,48.24308]},"properties":{"date":"1944-08-27","unit_country":"USA","unit_type":"Armoured","unit_size":"Division","unit_name":"4th Armoured Division"}},{"type":"Feature","geometry":{"type":"Point","coordinates":[1.4512,48.91189]},"properties":{"date":"1944-08-27","unit_country":"USA","unit_type":"Infantry","unit_size":"Corp","unit_name":"Nineteenth Corps"}},{"type":"Feature","geometry":{"type":"Point","coordinates":[1.51894,48.95522]},"properties":{"date":"1944-08-27","unit_country":"USA","unit_type":"Infantry","unit_size":"Division","unit_name":"30th Infantry Division"}},{"type":"Feature","geometry":{"type":"Point","coordinates":[0.4573,49.5064]},"properties":{"date":"1944-08-27","unit_country":"GMN","unit_type":"Infantry","unit_size":"Division","unit_name":"711th Infantry Division"}},{"type":"Feature","geometry":{"type":"Point","coordinates":[0.56676,49.48772]},"properties":{"date":"1944-08-27","unit_country":"GMN","unit_type":"Infantry","unit_size":"Division","unit_name":"272nd Infantry Division"}},{"type":"Feature","geometry":{"type":"Point","coordinates":[0.68371,49.50116]},"properties":{"date":"1944-08-27","unit_country":"GMN","unit_type":"Infantry","unit_size":"Division","unit_name":"346th Infantry Division"}},{"type":"Feature","geometry":{"type":"Point","coordinates":[0.89572,49.45607]},"properties":{"date":"1944-08-27","unit_country":"GMN","unit_type":"Infantry","unit_size":"Division","unit_name":"85th Infantry Division"}},{"type":"Feature","geometry":{"type":"Point","coordinates":[1.08227,49.47594]},"properties":{"date":"1944-08-27","unit_country":"GMN","unit_type":"Armoured","unit_size":"Division","unit_name":"2nd SS Panzer Division"}},{"type":"Feature","geometry":{"type":"Point","coordinates":[1.29428,49.26988]},"properties":{"date":"1944-08-27","unit_country":"GMN","unit_type":"Armoured","unit_size":"Division","unit_name":"12th SS Panzer Division"}},{"type":"Feature","geometry":{"type":"Point","coordinates":[0.80316,49.49973]},"properties":{"date":"1944-08-27","unit_country":"GMN","unit_type":"Armoured","unit_size":"Division","unit_name":"9th SS Panzer Division"}},{"type":"Feature","geometry":{"type":"Point","coordinates":[1.44038,49.19921]},"properties":{"date":"1944-08-27","unit_country":"GMN","unit_type":"Infantry","unit_size":"Division","unit_name":"17th Luftwaffe Division"}},{"type":"Feature","geometry":{"type":"Point","coordinates":[0.89762,49.381]},"properties":{"date":"1944-08-27","unit_country":"GMN","unit_type":"Infantry","unit_size":"Division","unit_name":"331st Infantry Division"}},{"type":"Feature","geometry":{"type":"Point","coordinates":[1.60694,49.13877]},"properties":{"date":"1944-08-27","unit_country":"GMN","unit_type":"Infantry","unit_size":"Division","unit_name":"49th Infantry Division"}},{"type":"Feature","geometry":{"type":"Point","coordinates":[1.86356,49.05335]},"properties":{"date":"1944-08-27","unit_country":"GMN","unit_type":"Infantry","unit_size":"Division","unit_name":"18th Luftwaffe Division"}},{"type":"Feature","geometry":{"type":"Point","coordinates":[3.62984,48.92962]},"properties":{"date":"1944-08-27","unit_country":"GMN","unit_type":"Infantry","unit_size":"Division","unit_name":"48th Infantry Division"}},{"type":"Feature","geometry":{"type":"Point","coordinates":[0.72261,49.47023]},"properties":{"date":"1944-08-27","unit_country":"GMN","unit_type":"Armoured","unit_size":"Division","unit_name":"21st Panzer Division"}},{"type":"Feature","geometry":{"type":"Point","coordinates":[1.15901,49.57945]},"properties":{"date":"1944-08-27","unit_country":"GMN","unit_type":"Armoured","unit_size":"Division","unit_name":"116th Panzer Division"}},{"type":"Feature","geometry":{"type":"Point","coordinates":[1.04955,49.4017]},"properties":{"date":"1944-08-27","unit_country":"GMN","unit_type":"Airborne","unit_size":"Division","unit_name":"6th Fallschirmjäger Division"}},{"type":"Feature","geometry":{"type":"Point","coordinates":[0.94473,49.41241]},"properties":{"date":"1944-08-27","unit_country":"GMN","unit_type":"Infantry","unit_size":"Division","unit_name":"344th Infantry Division"}},{"type":"Feature","geometry":{"type":"Point","coordinates":[0.98145,49.26328]},"properties":{"date":"1944-08-27","unit_country":"CAN","unit_type":"Infantry","unit_size":"Brigade","unit_name":"9th Canadian Infantry Brigade"}},{"type":"Feature","geometry":{"type":"Point","coordinates":[0.99576,49.27393]},"properties":{"date":"1944-08-27","unit_country":"CAN","unit_type":"Infantry","unit_size":"Brigade","unit_name":"7th Canadian Infantry Brigade"}},{"type":"Feature","geometry":{"type":"Point","coordinates":[0.93038,49.25794]},"properties":{"date":"1944-08-27","unit_country":"CAN","unit_type":"Infantry","unit_size":"Brigade","unit_name":"8th Canadian Infantry Brigade"}},{"type":"Feature","geometry":{"type":"Point","coordinates":[0.60142,49.19237]},"properties":{"date":"1944-08-27","unit_country":"CAN","unit_type":"Infantry","unit_size":"Brigade","unit_name":"4th Canadian Infantry Brigade"}},{"type":"Feature","geometry":{"type":"Point","coordinates":[1.04399,49.21952]},"properties":{"date":"1944-08-27","unit_country":"CAN","unit_type":"Infantry","unit_size":"Brigade","unit_name":"10th Canadian Infantry Brigade"}},{"type":"Feature","geometry":{"type":"Point","coordinates":[1.12645,49.26866]},"properties":{"date":"1944-08-27","unit_country":"CAN","unit_type":"Armoured","unit_size":"Brigade","unit_name":"4th Canadian Armoured Brigade"}},{"type":"Feature","geometry":{"type":"Point","coordinates":[0.72885,49.2003]},"properties":{"date":"1944-08-27","unit_country":"CAN","unit_type":"Infantry","unit_size":"Brigade","unit_name":"6th Canadian Infantry Brigade"}},{"type":"Feature","geometry":{"type":"Point","coordinates":[0.8761,49.28722]},"properties":{"date":"1944-08-27","unit_country":"CAN","unit_type":"Infantry","unit_size":"Division","unit_name":"2nd Canadian Infantry Division"}},{"type":"Feature","geometry":{"type":"Point","coordinates":[0.91251,49.26507]},"properties":{"date":"1944-08-27","unit_country":"CAN","unit_type":"Infantry","unit_size":"Battalion","unit_name":"The Queen?s Own Rifles of Canadaÿ"}},{"type":"Feature","geometry":{"type":"Point","coordinates":[1.011,49.28791]},"properties":{"date":"1944-08-27","unit_country":"CAN","unit_type":"Infantry","unit_size":"Battalion","unit_name":"The North Nova Scotia Highlanders"}},{"type":"Feature","geometry":{"type":"Point","coordinates":[1.00938,49.28646]},"properties":{"date":"1944-08-27","unit_country":"CAN","unit_type":"Infantry","unit_size":"Battalion","unit_name":"North Shore (New Brunswick) Regiment"}},{"type":"Feature","geometry":{"type":"Point","coordinates":[1.08075,49.31335]},"properties":{"date":"1944-08-27","unit_country":"CAN","unit_type":"Infantry","unit_size":"Battalion","unit_name":"The Canadian Scottish Regiment"}},{"type":"Feature","geometry":{"type":"Point","coordinates":[1.11098,49.25876]},"properties":{"date":"1944-08-27","unit_country":"CAN","unit_type":"Armoured","unit_size":"Division","unit_name":"4th Armoured Division"}},{"type":"Feature","geometry":{"type":"Point","coordinates":[1.06507,49.30896]},"properties":{"date":"1944-08-27","unit_country":"CAN","unit_type":"Infantry","unit_size":"Battalion","unit_name":"The Regina Rifles"}},{"type":"Feature","geometry":{"type":"Point","coordinates":[1.06299,49.32614]},"properties":{"date":"1944-08-27","unit_country":"CAN","unit_type":"Infantry","unit_size":"Battalion","unit_name":"The Royal Winnipeg Rifles"}},{"type":"Feature","geometry":{"type":"Point","coordinates":[1.14689,49.29142]},"properties":{"date":"1944-08-27","unit_country":"CAN","unit_type":"Armoured","unit_size":"Battalion","unit_name":"21st Armoured Regiment (The Governor General?s Foot Guards)"}},{"type":"Feature","geometry":{"type":"Point","coordinates":[1.00957,49.28096]},"properties":{"date":"1944-08-27","unit_country":"CAN","unit_type":"Infantry","unit_size":"Battalion","unit_name":"Highland Light Infantry of Canada"}},{"type":"Feature","geometry":{"type":"Point","coordinates":[1.02569,49.28292]},"properties":{"date":"1944-08-27","unit_country":"CAN","unit_type":"Infantry","unit_size":"Battalion","unit_name":"Stormont, Dundas & Glengarry Highlanders"}},{"type":"Feature","geometry":{"type":"Point","coordinates":[1.08361,49.24983]},"properties":{"date":"1944-08-27","unit_country":"CAN","unit_type":"Armoured","unit_size":"Battalion","unit_name":"6th Canadian Armoured Regiment (1st Hussars)ÿ"}},{"type":"Feature","geometry":{"type":"Point","coordinates":[0.98235,49.25935]},"properties":{"date":"1944-08-27","unit_country":"CAN","unit_type":"Reconnaissance","unit_size":"Battalion","unit_name":"7th Reconnaissance Regiment (17th Duke of York's Royal Canadian Hussars)"}},{"type":"Feature","geometry":{"type":"Point","coordinates":[1.06371,49.28371]},"properties":{"date":"1944-08-27","unit_country":"CAN","unit_type":"Artillery","unit_size":"Battalion","unit_name":"12th Field Regiment Royal Canadian Artillery"}},{"type":"Feature","geometry":{"type":"Point","coordinates":[1.08412,49.27554]},"properties":{"date":"1944-08-27","unit_country":"CAN","unit_type":"Artillery","unit_size":"Battalion","unit_name":"13th Field Regiment Royal Canadian Artillery"}},{"type":"Feature","geometry":{"type":"Point","coordinates":[1.07725,49.26472]},"properties":{"date":"1944-08-27","unit_country":"CAN","unit_type":"Artillery","unit_size":"Battalion","unit_name":"14th Field Regiment Royal Canadian Artillery"}},{"type":"Feature","geometry":{"type":"Point","coordinates":[1.15892,49.28884]},"properties":{"date":"1944-08-27","unit_country":"CAN","unit_type":"Armoured","unit_size":"Battalion","unit_name":"22nd Armoured Regiment (Canadian Grenadier Guards)"}},{"type":"Feature","geometry":{"type":"Point","coordinates":[1.1706,49.30439]},"properties":{"date":"1944-08-27","unit_country":"CAN","unit_type":"Mechanized","unit_size":"Battalion","unit_name":"The Lake Superior Regiment"}},{"type":"Feature","geometry":{"type":"Point","coordinates":[1.09825,49.30625]},"properties":{"date":"1944-08-27","unit_country":"CAN","unit_type":"Infantry","unit_size":"Battalion","unit_name":"The Lincoln & Welland Regiment"}},{"type":"Feature","geometry":{"type":"Point","coordinates":[1.11852,49.31981]},"properties":{"date":"1944-08-27","unit_country":"CAN","unit_type":"Infantry","unit_size":"Battalion","unit_name":"The Algonquin Regiment"}},{"type":"Feature","geometry":{"type":"Point","coordinates":[1.14803,49.31991]},"properties":{"date":"1944-08-27","unit_country":"CAN","unit_type":"Infantry","unit_size":"Battalion","unit_name":"The Argyll & Sutherland Highlanders of Canada (Princess Louise's)"}},{"type":"Feature","geometry":{"type":"Point","coordinates":[0.83225,49.27065]},"properties":{"date":"1944-08-27","unit_country":"CAN","unit_type":"Armoured","unit_size":"Battalion","unit_name":"27th Canadian Armoured Regiment (The Sherbrooke Fusiliers)ÿ"}},{"type":"Feature","geometry":{"type":"Point","coordinates":[0.84773,49.28521]},"properties":{"date":"1944-08-27","unit_country":"CAN","unit_type":"Infantry","unit_size":"Brigade","unit_name":"5th Canadian Infantry Brigade"}},{"type":"Feature","geometry":{"type":"Point","coordinates":[-0.6407,49.3209]},"properties":{"date":"1944-08-27","unit_country":"CAN","unit_type":"Artillery","unit_size":"Battalion","unit_name":"19th Field Regiment Royal Canadian Artillery"}},{"type":"Feature","geometry":{"type":"Point","coordinates":[1.15434,49.35537]},"properties":{"date":"1944-08-27","unit_country":"CAN","unit_type":"Infantry","unit_size":"Battalion","unit_name":"The Royal Regiment of Canada"}},{"type":"Feature","geometry":{"type":"Point","coordinates":[0.3352,48.97725]},"properties":{"date":"1944-08-27","unit_country":"CAN","unit_type":"Armoured","unit_size":"Brigade","unit_name":"2nd Canadian Armoured Brigade"}},{"type":"Feature","geometry":{"type":"Point","coordinates":[1.11987,49.26683]},"properties":{"date":"1944-08-27","unit_country":"CAN","unit_type":"Artillery","unit_size":"Battalion","unit_name":"15th Field Regiment, Royal Canadian Artillery"}},{"type":"Feature","geometry":{"type":"Point","coordinates":[1.13403,49.29015]},"properties":{"date":"1944-08-27","unit_country":"CAN","unit_type":"Artillery","unit_size":"Battalion","unit_name":"23rd Field Regiment, Royal Canadian Artillery"}},{"type":"Feature","geometry":{"type":"Point","coordinates":[0.99543,49.31418]},"properties":{"date":"1944-08-27","unit_country":"CAN","unit_type":"Infantry","unit_size":"Battalion","unit_name":"Essex Scottish Regiment"}},{"type":"Feature","geometry":{"type":"Point","coordinates":[0.87164,49.29984]},"properties":{"date":"1944-08-27","unit_country":"CAN","unit_type":"Infantry","unit_size":"Battalion","unit_name":"The Calgary Highlanders"}},{"type":"Feature","geometry":{"type":"Point","coordinates":[0.98773,49.32456]},"properties":{"date":"1944-08-27","unit_country":"CAN","unit_type":"Infantry","unit_size":"Battalion","unit_name":"Royal Hamilton Light Infantry"}},{"type":"Feature","geometry":{"type":"Point","coordinates":[1.07531,49.28129]},"properties":{"date":"1944-08-27","unit_country":"CAN","unit_type":"Reconnaissance","unit_size":"Battalion","unit_name":"29th Reconnaissance Regiment (The South Alberta Regiment)"}},{"type":"Feature","geometry":{"type":"Point","coordinates":[0.95061,49.33993]},"properties":{"date":"1944-08-27","unit_country":"CAN","unit_type":"Infantry","unit_size":"Battalion","unit_name":"Queen's Own Cameron Highlanders of Canada"}},{"type":"Feature","geometry":{"type":"Point","coordinates":[0.89633,49.28535]},"properties":{"date":"1944-08-27","unit_country":"CAN","unit_type":"Infantry","unit_size":"Battalion","unit_name":"Le Regiment de Maisonneuve"}},{"type":"Feature","geometry":{"type":"Point","coordinates":[0.90299,49.32522]},"properties":{"date":"1944-08-27","unit_country":"CAN","unit_type":"Infantry","unit_size":"Battalion","unit_name":"Les Fusiliers Mont-Royal"}},{"type":"Feature","geometry":{"type":"Point","coordinates":[0.87332,49.29728]},"properties":{"date":"1944-08-27","unit_country":"CAN","unit_type":"Infantry","unit_size":"Battalion","unit_name":"The Black Watch (Royal Highalnders) of Canada"}},{"type":"Feature","geometry":{"type":"Point","coordinates":[0.92767,49.34622]},"properties":{"date":"1944-08-27","unit_country":"CAN","unit_type":"Infantry","unit_size":"Battalion","unit_name":"The South Sasketchewan Regiment"}},{"type":"Feature","geometry":{"type":"Point","coordinates":[1.1796,49.29285]},"properties":{"date":"1944-08-27","unit_country":"CAN","unit_type":"Armoured","unit_size":"Battalion","unit_name":"28th Armoured Regiment (The British Columbia Regiment, Duke of Connaught's Own Rifles)"}},{"type":"Feature","geometry":{"type":"Point","coordinates":[0.36946,49.37506]},"properties":{"date":"1944-08-27","unit_country":"CAN","unit_type":"Airborne","unit_size":"Battalion","unit_name":"1st Canadian Parachute Battalion"}},{"type":"Feature","geometry":{"type":"Point","coordinates":[0.98708,49.25933]},"properties":{"date":"1944-08-27","unit_country":"CAN","unit_type":"Engineer","unit_size":"Company","unit_name":"6th Field Company, Royal Canadian Engineers"}},{"type":"Feature","geometry":{"type":"Point","coordinates":[0.94615,49.25833]},"properties":{"date":"1944-08-27","unit_country":"CAN","unit_type":"Infantry","unit_size":"Division","unit_name":"3rd Canadian Infantry Division"}},{"type":"Feature","geometry":{"type":"Point","coordinates":[0.97928,49.25734]},"properties":{"date":"1944-08-27","unit_country":"CAN","unit_type":"Armoured","unit_size":"Battalion","unit_name":"10th Canadian Armoured Regiment (The Fort Garry Horse)"}},{"type":"Feature","geometry":{"type":"Point","coordinates":[0.9108,49.29274]},"properties":{"date":"1944-08-27","unit_country":"CAN","unit_type":"Artillery","unit_size":"Battalion","unit_name":"5th Field Regiment, Royal Canadian Artillery"}},{"type":"Feature","geometry":{"type":"Point","coordinates":[0.92801,49.2994]},"properties":{"date":"1944-08-27","unit_country":"CAN","unit_type":"Artillery","unit_size":"Battalion","unit_name":"6th Field Regiment, Royal Canadian Artillery"}},{"type":"Feature","geometry":{"type":"Point","coordinates":[0.91337,49.28402]},"properties":{"date":"1944-08-27","unit_country":"CAN","unit_type":"Artillery","unit_size":"Battalion","unit_name":"4th Field Regiment, Royal Canadian Artillery"}},{"type":"Feature","geometry":{"type":"Point","coordinates":[0.87752,49.28475]},"properties":{"date":"1944-08-27","unit_country":"CAN","unit_type":"Reconnaissance","unit_size":"Battalion","unit_name":"8th Reconnaissance Regiment (14th Canadian Hussars)"}},{"type":"Feature","geometry":{"type":"Point","coordinates":[0.94094,49.26705]},"properties":{"date":"1944-08-27","unit_country":"Can","unit_type":"Infantry","unit_size":"Battalion","unit_name":"Regiment de la Chaudiere"}},{"type":"Feature","geometry":{"type":"Point","coordinates":[0.97488,49.26057]},"properties":{"date":"1944-08-27","unit_country":"CAN","unit_type":"Engineer","unit_size":"Company","unit_name":"18th Field Company Royal Canadian Engineers"}},{"type":"Feature","geometry":{"type":"Point","coordinates":[0.86441,49.23307]},"properties":{"date":"1944-08-27","unit_country":"CAN","unit_type":"Engineer","unit_size":"Company","unit_name":"5th Field Company Royal Canadian Engineers"}},{"type":"Feature","geometry":{"type":"Point","coordinates":[0.98363,49.26092]},"properties":{"date":"1944-08-27","unit_country":"CAN","unit_type":"Engineer","unit_size":"Company","unit_name":"16th Field Company Royal Canadian Engineers"}},{"type":"Feature","geometry":{"type":"Point","coordinates":[0.90957,49.28069]},"properties":{"date":"1944-08-27","unit_country":"CAN","unit_type":"Infantry","unit_size":"Battalion","unit_name":"Toronto Scottish Regiment"}},{"type":"Feature","geometry":{"type":"Point","coordinates":[0.90957,49.28069]},"properties":{"date":"1944-08-27","unit_country":"CAN","unit_type":"Infantry","unit_size":"Platoon","unit_name":"Toronto Scottish Regiment"}},{"type":"Feature","geometry":{"type":"Point","coordinates":[0.94608,49.30634]},"properties":{"date":"1944-08-27","unit_country":"CAN","unit_type":"Infantry","unit_size":"Company","unit_name":"Toronto Scottish Regiment"}},{"type":"Feature","geometry":{"type":"Point","coordinates":[0.89948,49.31352]},"properties":{"date":"1944-08-27","unit_country":"CAN","unit_type":"Infantry","unit_size":"Company","unit_name":"Toronto Scottish Regiment"}},{"type":"Feature","geometry":{"type":"Point","coordinates":[0.88479,49.29005]},"properties":{"date":"1944-08-27","unit_country":"CAN","unit_type":"Infantry","unit_size":"Company","unit_name":"Toronto Scottish Regiment"}},{"type":"Feature","geometry":{"type":"Point","coordinates":[1.05723,49.21366]},"properties":{"date":"1944-08-27","unit_country":"CAN","unit_type":"Engineer","unit_size":"Company","unit_name":"6th Field Park Squadron"}},{"type":"Feature","geometry":{"type":"Point","coordinates":[-0.39861,49.40361]},"properties":{"date":"1944-08-27","unit_country":"CAN","unit_type":"Infantry","unit_size":"Battalion","unit_name":"The Cameron Highlanders of Ottawa (Duke of Edinburgh's Own)"}}]}