{"type":"FeatureCollection","features":[{"type":"Feature","geometry":{"type":"Point","coordinates":[-0.82997,49.18039]},"properties":{"date":"1944-08-14","unit_country":"GB","unit_type":"Infantry","unit_size":"Army Group","unit_name":"Twenty-First Army Group"}},{"type":"Feature","geometry":{"type":"Point","coordinates":[-0.80427,48.84929]},"properties":{"date":"1944-08-14","unit_country":"GB","unit_type":"Infantry","unit_size":"Division","unit_name":"3rd Infantry Division"}},{"type":"Feature","geometry":{"type":"Point","coordinates":[-0.87409,49.01853]},"properties":{"date":"1944-08-14","unit_country":"GB","unit_type":"Infantry","unit_size":"Corp","unit_name":"Eigth Corps"}},{"type":"Feature","geometry":{"type":"Point","coordinates":[-0.26546,49.223]},"properties":{"date":"1944-08-14","unit_country":"GB","unit_type":"Airborne","unit_size":"Division","unit_name":"6th Airborne Division"}},{"type":"Feature","geometry":{"type":"Point","coordinates":[-0.49841,49.2907]},"properties":{"date":"1944-08-14","unit_country":"CAN","unit_type":"Infantry","unit_size":"Army","unit_name":"First Army"}},{"type":"Feature","geometry":{"type":"Point","coordinates":[-0.25844,49.13615]},"properties":{"date":"1944-08-14","unit_country":"GB","unit_type":"Infantry","unit_size":"Division","unit_name":"49th Infantry Division"}},{"type":"Feature","geometry":{"type":"Point","coordinates":[-0.24726,49.07643]},"properties":{"date":"1944-08-14","unit_country":"GB","unit_type":"Infantry","unit_size":"Division","unit_name":"51st Infantry Division"}},{"type":"Feature","geometry":{"type":"Point","coordinates":[-0.39502,49.29308]},"properties":{"date":"1944-08-14","unit_country":"GB","unit_type":"Infantry","unit_size":"Corp","unit_name":"First Corps"}},{"type":"Feature","geometry":{"type":"Point","coordinates":[-0.47592,49.20123]},"properties":{"date":"1944-08-14","unit_country":"CAN","unit_type":"Infantry","unit_size":"Corp","unit_name":"Second Corps"}},{"type":"Feature","geometry":{"type":"Point","coordinates":[-0.3065,49.00588]},"properties":{"date":"1944-08-14","unit_country":"POL","unit_type":"Armoured","unit_size":"Division","unit_name":"1st Armoured Division"}},{"type":"Feature","geometry":{"type":"Point","coordinates":[-0.61179,48.64051]},"properties":{"date":"1944-08-14","unit_country":"GMN","unit_type":"Mechanized","unit_size":"Division","unit_name":"17th Panzer Grenadier Division"}},{"type":"Feature","geometry":{"type":"Point","coordinates":[-0.61227,48.97471]},"properties":{"date":"1944-08-14","unit_country":"GB","unit_type":"Armoured","unit_size":"Division","unit_name":"7th Armoured Division"}},{"type":"Feature","geometry":{"type":"Point","coordinates":[-0.43916,48.99779]},"properties":{"date":"1944-08-14","unit_country":"GB","unit_type":"Infantry","unit_size":"Division","unit_name":"53rd Infantry Division"}},{"type":"Feature","geometry":{"type":"Point","coordinates":[-0.61691,48.94068]},"properties":{"date":"1944-08-14","unit_country":"GB","unit_type":"Infantry","unit_size":"Division","unit_name":"43rd Infantry Division"}},{"type":"Feature","geometry":{"type":"Point","coordinates":[-0.55694,48.90642]},"properties":{"date":"1944-08-14","unit_country":"GB","unit_type":"Infantry","unit_size":"Division","unit_name":"50th Infantry Division"}},{"type":"Feature","geometry":{"type":"Point","coordinates":[-0.79322,48.88952]},"properties":{"date":"1944-08-14","unit_country":"GB","unit_type":"Armoured","unit_size":"Division","unit_name":"Guards Division"}},{"type":"Feature","geometry":{"type":"Point","coordinates":[-0.7028,48.99886]},"properties":{"date":"1944-08-14","unit_country":"GB","unit_type":"Infantry","unit_size":"Corp","unit_name":"Thirty Corps"}},{"type":"Feature","geometry":{"type":"Point","coordinates":[-0.99417,48.80315]},"properties":{"date":"1944-08-14","unit_country":"USA","unit_type":"Infantry","unit_size":"Corp","unit_name":"Nineteenth Corps"}},{"type":"Feature","geometry":{"type":"Point","coordinates":[-0.86544,48.80339]},"properties":{"date":"1944-08-14","unit_country":"USA","unit_type":"Infantry","unit_size":"Corp","unit_name":"Fifth Corps"}},{"type":"Feature","geometry":{"type":"Point","coordinates":[0.0804,48.46241]},"properties":{"date":"1944-08-14","unit_country":"USA","unit_type":"Infantry","unit_size":"Corp","unit_name":"Fifteenth Corps"}},{"type":"Feature","geometry":{"type":"Point","coordinates":[-0.93528,48.47811]},"properties":{"date":"1944-08-14","unit_country":"USA","unit_type":"Infantry","unit_size":"Corp","unit_name":"Eighth Corps"}},{"type":"Feature","geometry":{"type":"Point","coordinates":[-1.42152,48.76627]},"properties":{"date":"1944-08-14","unit_country":"USA","unit_type":"Infantry","unit_size":"Corp","unit_name":"Twelfth Corps"}},{"type":"Feature","geometry":{"type":"Point","coordinates":[0.16653,48.10501]},"properties":{"date":"1944-08-14","unit_country":"USA","unit_type":"Infantry","unit_size":"Army","unit_name":"Third Army"}},{"type":"Feature","geometry":{"type":"Point","coordinates":[-1.09018,48.77507]},"properties":{"date":"1944-08-14","unit_country":"USA","unit_type":"Infantry","unit_size":"Army","unit_name":"First Army"}},{"type":"Feature","geometry":{"type":"Point","coordinates":[-0.47592,49.20123]},"properties":{"date":"1944-08-14","unit_country":"GB","unit_type":"Infantry","unit_size":"Army","unit_name":"Second Army"}},{"type":"Feature","geometry":{"type":"Point","coordinates":[0.33072,48.48882]},"properties":{"date":"1944-08-14","unit_country":"USA","unit_type":"Infantry","unit_size":"Division","unit_name":"79th Infantry Division"}},{"type":"Feature","geometry":{"type":"Point","coordinates":[-0.81779,48.65854]},"properties":{"date":"1944-08-14","unit_country":"USA","unit_type":"Infantry","unit_size":"Division","unit_name":"30th Infantry Division"}},{"type":"Feature","geometry":{"type":"Point","coordinates":[-0.06196,48.6934]},"properties":{"date":"1944-08-14","unit_country":"FRE","unit_type":"Armoured","unit_size":"Division","unit_name":"2nd Armoured Division"}},{"type":"Feature","geometry":{"type":"Point","coordinates":[-0.89846,48.68566]},"properties":{"date":"1944-08-14","unit_country":"USA","unit_type":"Infantry","unit_size":"Division","unit_name":"28th Infantry Division"}},{"type":"Feature","geometry":{"type":"Point","coordinates":[-0.97817,48.50078]},"properties":{"date":"1944-08-14","unit_country":"USA","unit_type":"Infantry","unit_size":"Division","unit_name":"4th Infantry Division"}},{"type":"Feature","geometry":{"type":"Point","coordinates":[-0.251,48.40905]},"properties":{"date":"1944-08-14","unit_country":"USA","unit_type":"Infantry","unit_size":"Division","unit_name":"9th Infantry Division"}},{"type":"Feature","geometry":{"type":"Point","coordinates":[-0.31739,48.37895]},"properties":{"date":"1944-08-14","unit_country":"USA","unit_type":"Armoured","unit_size":"Division","unit_name":"3rd Armoured Division"}},{"type":"Feature","geometry":{"type":"Point","coordinates":[-0.17314,49.25191]},"properties":{"date":"1944-08-14","unit_country":"GMN","unit_type":"Infantry","unit_size":"Division","unit_name":"711th Infantry Division"}},{"type":"Feature","geometry":{"type":"Point","coordinates":[-0.15719,49.09701]},"properties":{"date":"1944-08-14","unit_country":"GMN","unit_type":"Infantry","unit_size":"Division","unit_name":"272nd Infantry Division"}},{"type":"Feature","geometry":{"type":"Point","coordinates":[-0.16148,49.18767]},"properties":{"date":"1944-08-14","unit_country":"GMN","unit_type":"Infantry","unit_size":"Division","unit_name":"346th Infantry Division"}},{"type":"Feature","geometry":{"type":"Point","coordinates":[-0.29794,48.93699]},"properties":{"date":"1944-08-14","unit_country":"GMN","unit_type":"Armoured","unit_size":"Division","unit_name":"12th SS Panzer Division"}},{"type":"Feature","geometry":{"type":"Point","coordinates":[-0.69602,48.83967]},"properties":{"date":"1944-08-14","unit_country":"GMN","unit_type":"Armoured","unit_size":"Division","unit_name":"9th SS Panzer Division"}},{"type":"Feature","geometry":{"type":"Point","coordinates":[-0.14399,48.9822]},"properties":{"date":"1944-08-14","unit_country":"GMN","unit_type":"Infantry","unit_size":"Division","unit_name":"85th Infantry Division"}},{"type":"Feature","geometry":{"type":"Point","coordinates":[-0.77354,48.74152]},"properties":{"date":"1944-08-14","unit_country":"GMN","unit_type":"Infantry","unit_size":"Division","unit_name":"84th Infantry Division"}},{"type":"Feature","geometry":{"type":"Point","coordinates":[-0.68032,48.86716]},"properties":{"date":"1944-08-14","unit_country":"GMN","unit_type":"Armoured","unit_size":"Division","unit_name":"21st Panzer Division"}},{"type":"Feature","geometry":{"type":"Point","coordinates":[0.03638,48.79553]},"properties":{"date":"1944-08-14","unit_country":"GMN","unit_type":"Armoured","unit_size":"Division","unit_name":"116th Panzer Division"}},{"type":"Feature","geometry":{"type":"Point","coordinates":[-0.75194,48.6329]},"properties":{"date":"1944-08-14","unit_country":"USA","unit_type":"Armoured","unit_size":"Division","unit_name":"2nd Armoured Division"}},{"type":"Feature","geometry":{"type":"Point","coordinates":[0.15904,48.7094]},"properties":{"date":"1944-08-14","unit_country":"USA","unit_type":"Armoured","unit_size":"Division","unit_name":"5th Armoured Division"}},{"type":"Feature","geometry":{"type":"Point","coordinates":[-0.74623,48.92736]},"properties":{"date":"1944-08-14","unit_country":"GB","unit_type":"Armoured","unit_size":"Division","unit_name":"11th Armoured Division"}},{"type":"Feature","geometry":{"type":"Point","coordinates":[0.00015,48.46996]},"properties":{"date":"1944-08-14","unit_country":"USA","unit_type":"Infantry","unit_size":"Division","unit_name":"90th Infantry Division"}},{"type":"Feature","geometry":{"type":"Point","coordinates":[0.66087,48.18163]},"properties":{"date":"1944-08-14","unit_country":"USA","unit_type":"Infantry","unit_size":"Corp","unit_name":"Twentieth Corps"}},{"type":"Feature","geometry":{"type":"Point","coordinates":[-1.4146,49.13054]},"properties":{"date":"1944-08-14","unit_country":"USA","unit_type":"Infantry","unit_size":"Army Group","unit_name":"Twelfth Army Group"}},{"type":"Feature","geometry":{"type":"Point","coordinates":[0.736,47.92435]},"properties":{"date":"1944-08-14","unit_country":"USA","unit_type":"Infantry","unit_size":"Division","unit_name":"5th Infantry Division"}},{"type":"Feature","geometry":{"type":"Point","coordinates":[0.71851,48.16004]},"properties":{"date":"1944-08-14","unit_country":"USA","unit_type":"Armoured","unit_size":"Division","unit_name":"7th Armoured Division"}},{"type":"Feature","geometry":{"type":"Point","coordinates":[-0.13584,48.36515]},"properties":{"date":"1944-08-14","unit_country":"USA","unit_type":"Infantry","unit_size":"Division","unit_name":"80th Infantry Division"}},{"type":"Feature","geometry":{"type":"Point","coordinates":[0.03965,48.76692]},"properties":{"date":"1944-08-14","unit_country":"GMN","unit_type":"Armoured","unit_size":"Division","unit_name":"Panzer Lehr Division"}},{"type":"Feature","geometry":{"type":"Point","coordinates":[-0.36557,48.55884]},"properties":{"date":"1944-08-14","unit_country":"USA","unit_type":"Infantry","unit_size":"Division","unit_name":"1st Infantry Division"}},{"type":"Feature","geometry":{"type":"Point","coordinates":[-0.79263,48.71546]},"properties":{"date":"1944-08-14","unit_country":"GMN","unit_type":"Infantry","unit_size":"Division","unit_name":"331st Infantry Division"}},{"type":"Feature","geometry":{"type":"Point","coordinates":[-0.74456,48.70416]},"properties":{"date":"1944-08-14","unit_country":"GMN","unit_type":"Armoured","unit_size":"Division","unit_name":"2nd Panzer Division"}},{"type":"Feature","geometry":{"type":"Point","coordinates":[-0.11175,48.77293]},"properties":{"date":"1944-08-14","unit_country":"GMN","unit_type":"Armoured","unit_size":"Division","unit_name":"2nd SS Panzer Division"}},{"type":"Feature","geometry":{"type":"Point","coordinates":[-0.38701,48.93226]},"properties":{"date":"1944-08-14","unit_country":"GMN","unit_type":"Infantry","unit_size":"Division","unit_name":"271st Infantry Division"}},{"type":"Feature","geometry":{"type":"Point","coordinates":[-0.47702,48.93233]},"properties":{"date":"1944-08-14","unit_country":"GMN","unit_type":"Infantry","unit_size":"Division","unit_name":"276th Infantry Division"}},{"type":"Feature","geometry":{"type":"Point","coordinates":[-0.45049,48.90063]},"properties":{"date":"1944-08-14","unit_country":"GMN","unit_type":"Infantry","unit_size":"Division","unit_name":"277th Infantry Division"}},{"type":"Feature","geometry":{"type":"Point","coordinates":[-0.60246,48.87568]},"properties":{"date":"1944-08-14","unit_country":"GMN","unit_type":"Infantry","unit_size":"Division","unit_name":"326th Infantry Division"}},{"type":"Feature","geometry":{"type":"Point","coordinates":[-0.75166,48.78364]},"properties":{"date":"1944-08-14","unit_country":"GMN","unit_type":"Infantry","unit_size":"Division","unit_name":"363rd Infantry Division"}},{"type":"Feature","geometry":{"type":"Point","coordinates":[-0.21527,48.6751]},"properties":{"date":"1944-08-14","unit_country":"GMN","unit_type":"Infantry","unit_size":"Division","unit_name":"708th Infantry Division"}},{"type":"Feature","geometry":{"type":"Point","coordinates":[-0.74237,48.81288]},"properties":{"date":"1944-08-14","unit_country":"GMN","unit_type":"Airborne","unit_size":"Division","unit_name":"3rd Fallschirmjäger Division"}},{"type":"Feature","geometry":{"type":"Point","coordinates":[-0.70004,48.67915]},"properties":{"date":"1944-08-14","unit_country":"GMN","unit_type":"Armoured","unit_size":"Division","unit_name":"1st SS Panzer Division"}},{"type":"Feature","geometry":{"type":"Point","coordinates":[-0.04147,48.80105]},"properties":{"date":"1944-08-14","unit_country":"GMN","unit_type":"Armoured","unit_size":"Division","unit_name":"9th Panzer Division"}},{"type":"Feature","geometry":{"type":"Point","coordinates":[-0.61119,48.6155]},"properties":{"date":"1944-08-14","unit_country":"GMN","unit_type":"Armoured","unit_size":"Division","unit_name":"10th SS Panzer Division"}},{"type":"Feature","geometry":{"type":"Point","coordinates":[-0.52744,49.0129]},"properties":{"date":"1944-08-14","unit_country":"GB","unit_type":"Infantry","unit_size":"Division","unit_name":"59th Infantry Division"}},{"type":"Feature","geometry":{"type":"Point","coordinates":[-0.19848,48.95674]},"properties":{"date":"1944-08-14","unit_country":"GMN","unit_type":"Infantry","unit_size":"Division","unit_name":"89th Infantry Division"}},{"type":"Feature","geometry":{"type":"Point","coordinates":[-0.50501,48.05391]},"properties":{"date":"1944-08-14","unit_country":"USA","unit_type":"Infantry","unit_size":"Division","unit_name":"35th Infantry Division"}},{"type":"Feature","geometry":{"type":"Point","coordinates":[-0.50329,49.0888]},"properties":{"date":"1944-08-14","unit_country":"GB","unit_type":"Infantry","unit_size":"Division","unit_name":"15th Infantry Division"}},{"type":"Feature","geometry":{"type":"Point","coordinates":[-0.89738,48.74991]},"properties":{"date":"1944-08-14","unit_country":"USA","unit_type":"Infantry","unit_size":"Division","unit_name":"29th Infantry Division"}},{"type":"Feature","geometry":{"type":"Point","coordinates":[-0.84563,48.78251]},"properties":{"date":"1944-08-14","unit_country":"USA","unit_type":"Infantry","unit_size":"Division","unit_name":"2nd Infantry Division"}},{"type":"Feature","geometry":{"type":"Point","coordinates":[-0.56848,49.14698]},"properties":{"date":"1944-08-14","unit_country":"GB","unit_type":"Infantry","unit_size":"Corp","unit_name":"Twelfth Corps"}},{"type":"Feature","geometry":{"type":"Point","coordinates":[-0.04887,48.82608]},"properties":{"date":"1944-08-14","unit_country":"GMN","unit_type":"Airborne","unit_size":"Division","unit_name":"6th Fallschirmjäger Division"}},{"type":"Feature","geometry":{"type":"Point","coordinates":[-0.23994,49.04204]},"properties":{"date":"1944-08-14","unit_country":"CAN","unit_type":"Infantry","unit_size":"Brigade","unit_name":"8th Canadian Infantry Brigade"}},{"type":"Feature","geometry":{"type":"Point","coordinates":[-0.2923,49.05806]},"properties":{"date":"1944-08-14","unit_country":"CAN","unit_type":"Infantry","unit_size":"Brigade","unit_name":"9th Canadian Infantry Brigade"}},{"type":"Feature","geometry":{"type":"Point","coordinates":[-0.18694,49.00125]},"properties":{"date":"1944-08-14","unit_country":"CAN","unit_type":"Infantry","unit_size":"Brigade","unit_name":"7th Canadian Infantry Brigade"}},{"type":"Feature","geometry":{"type":"Point","coordinates":[-0.3078,49.03272]},"properties":{"date":"1944-08-14","unit_country":"CAN","unit_type":"Infantry","unit_size":"Brigade","unit_name":"4th Canadian Infantry Brigade"}},{"type":"Feature","geometry":{"type":"Point","coordinates":[-0.38474,49.14768]},"properties":{"date":"1944-08-14","unit_country":"CAN","unit_type":"Infantry","unit_size":"Brigade","unit_name":"10th Canadian Infantry Brigade"}},{"type":"Feature","geometry":{"type":"Point","coordinates":[-0.20987,49.0269]},"properties":{"date":"1944-08-14","unit_country":"CAN","unit_type":"Armoured","unit_size":"Brigade","unit_name":"4th Canadian Armoured Brigade"}},{"type":"Feature","geometry":{"type":"Point","coordinates":[-0.30745,49.03398]},"properties":{"date":"1944-08-14","unit_country":"CAN","unit_type":"Infantry","unit_size":"Brigade","unit_name":"6th Canadian Infantry Brigade"}},{"type":"Feature","geometry":{"type":"Point","coordinates":[-0.34403,49.05084]},"properties":{"date":"1944-08-14","unit_country":"CAN","unit_type":"Infantry","unit_size":"Division","unit_name":"2nd Canadian Infantry Division"}},{"type":"Feature","geometry":{"type":"Point","coordinates":[-0.1588,48.99843]},"properties":{"date":"1944-08-14","unit_country":"CAN","unit_type":"Infantry","unit_size":"Battalion","unit_name":"The Queen?s Own Rifles of Canadaÿ"}},{"type":"Feature","geometry":{"type":"Point","coordinates":[-0.2533,49.02274]},"properties":{"date":"1944-08-14","unit_country":"CAN","unit_type":"Infantry","unit_size":"Battalion","unit_name":"The North Nova Scotia Highlanders"}},{"type":"Feature","geometry":{"type":"Point","coordinates":[-0.27334,49.07994]},"properties":{"date":"1944-08-14","unit_country":"CAN","unit_type":"Infantry","unit_size":"Battalion","unit_name":"North Shore (New Brunswick) Regiment"}},{"type":"Feature","geometry":{"type":"Point","coordinates":[-0.1935,48.95322]},"properties":{"date":"1944-08-14","unit_country":"CAN","unit_type":"Infantry","unit_size":"Battalion","unit_name":"The Canadian Scottish Regiment"}},{"type":"Feature","geometry":{"type":"Point","coordinates":[-0.22832,49.05893]},"properties":{"date":"1944-08-14","unit_country":"CAN","unit_type":"Armoured","unit_size":"Division","unit_name":"4th Armoured Division"}},{"type":"Feature","geometry":{"type":"Point","coordinates":[-0.23085,49.0179]},"properties":{"date":"1944-08-14","unit_country":"CAN","unit_type":"Infantry","unit_size":"Battalion","unit_name":"The Regina Rifles"}},{"type":"Feature","geometry":{"type":"Point","coordinates":[-0.20297,48.96172]},"properties":{"date":"1944-08-14","unit_country":"CAN","unit_type":"Infantry","unit_size":"Battalion","unit_name":"The Royal Winnipeg Rifles"}},{"type":"Feature","geometry":{"type":"Point","coordinates":[-0.15862,48.98432]},"properties":{"date":"1944-08-14","unit_country":"CAN","unit_type":"Armoured","unit_size":"Battalion","unit_name":"21st Armoured Regiment (The Governor General?s Foot Guards)"}},{"type":"Feature","geometry":{"type":"Point","coordinates":[-0.19326,48.98555]},"properties":{"date":"1944-08-14","unit_country":"CAN","unit_type":"Infantry","unit_size":"Battalion","unit_name":"Highland Light Infantry of Canada"}},{"type":"Feature","geometry":{"type":"Point","coordinates":[-0.20153,48.99354]},"properties":{"date":"1944-08-14","unit_country":"CAN","unit_type":"Infantry","unit_size":"Battalion","unit_name":"Stormont, Dundas & Glengarry Highlanders"}},{"type":"Feature","geometry":{"type":"Point","coordinates":[-0.20727,48.95527]},"properties":{"date":"1944-08-14","unit_country":"CAN","unit_type":"Armoured","unit_size":"Battalion","unit_name":"6th Canadian Armoured Regiment (1st Hussars)ÿ"}},{"type":"Feature","geometry":{"type":"Point","coordinates":[-0.27841,49.0425]},"properties":{"date":"1944-08-14","unit_country":"CAN","unit_type":"Reconnaissance","unit_size":"Battalion","unit_name":"7th Reconnaissance Regiment (17th Duke of York's Royal Canadian Hussars)"}},{"type":"Feature","geometry":{"type":"Point","coordinates":[-0.22313,49.02645]},"properties":{"date":"1944-08-14","unit_country":"CAN","unit_type":"Artillery","unit_size":"Battalion","unit_name":"12th Field Regiment Royal Canadian Artillery"}},{"type":"Feature","geometry":{"type":"Point","coordinates":[-0.21664,49.02993]},"properties":{"date":"1944-08-14","unit_country":"CAN","unit_type":"Artillery","unit_size":"Battalion","unit_name":"13th Field Regiment Royal Canadian Artillery"}},{"type":"Feature","geometry":{"type":"Point","coordinates":[-0.25725,49.04688]},"properties":{"date":"1944-08-14","unit_country":"CAN","unit_type":"Artillery","unit_size":"Battalion","unit_name":"14th Field Regiment Royal Canadian Artillery"}},{"type":"Feature","geometry":{"type":"Point","coordinates":[-0.17968,48.95317]},"properties":{"date":"1944-08-14","unit_country":"CAN","unit_type":"Armoured","unit_size":"Battalion","unit_name":"22nd Armoured Regiment (Canadian Grenadier Guards)"}},{"type":"Feature","geometry":{"type":"Point","coordinates":[-0.15683,48.99195]},"properties":{"date":"1944-08-14","unit_country":"CAN","unit_type":"Mechanized","unit_size":"Battalion","unit_name":"The Lake Superior Regiment"}},{"type":"Feature","geometry":{"type":"Point","coordinates":[-0.15994,48.9707]},"properties":{"date":"1944-08-14","unit_country":"CAN","unit_type":"Infantry","unit_size":"Battalion","unit_name":"The Lincoln & Welland Regiment"}},{"type":"Feature","geometry":{"type":"Point","coordinates":[-0.17099,48.98817]},"properties":{"date":"1944-08-14","unit_country":"CAN","unit_type":"Infantry","unit_size":"Battalion","unit_name":"The Algonquin Regiment"}},{"type":"Feature","geometry":{"type":"Point","coordinates":[-0.1696,48.96903]},"properties":{"date":"1944-08-14","unit_country":"CAN","unit_type":"Infantry","unit_size":"Battalion","unit_name":"The Argyll & Sutherland Highlanders of Canada (Princess Louise's)"}},{"type":"Feature","geometry":{"type":"Point","coordinates":[-0.2953,48.95964]},"properties":{"date":"1944-08-14","unit_country":"CAN","unit_type":"Armoured","unit_size":"Battalion","unit_name":"27th Canadian Armoured Regiment (The Sherbrooke Fusiliers)ÿ"}},{"type":"Feature","geometry":{"type":"Point","coordinates":[-0.32291,49.01465]},"properties":{"date":"1944-08-14","unit_country":"CAN","unit_type":"Infantry","unit_size":"Brigade","unit_name":"5th Canadian Infantry Brigade"}},{"type":"Feature","geometry":{"type":"Point","coordinates":[-0.17111,49.0186]},"properties":{"date":"1944-08-14","unit_country":"CAN","unit_type":"Artillery","unit_size":"Battalion","unit_name":"19th Field Regiment Royal Canadian Artillery"}},{"type":"Feature","geometry":{"type":"Point","coordinates":[-0.28028,49.04043]},"properties":{"date":"1944-08-14","unit_country":"CAN","unit_type":"Infantry","unit_size":"Battalion","unit_name":"The Royal Regiment of Canada"}},{"type":"Feature","geometry":{"type":"Point","coordinates":[-0.29878,49.0692]},"properties":{"date":"1944-08-14","unit_country":"CAN","unit_type":"Armoured","unit_size":"Brigade","unit_name":"2nd Canadian Armoured Brigade"}},{"type":"Feature","geometry":{"type":"Point","coordinates":[-0.25544,49.04975]},"properties":{"date":"1944-08-14","unit_country":"CAN","unit_type":"Artillery","unit_size":"Battalion","unit_name":"15th Field Regiment, Royal Canadian Artillery"}},{"type":"Feature","geometry":{"type":"Point","coordinates":[-0.17681,49.00775]},"properties":{"date":"1944-08-14","unit_country":"CAN","unit_type":"Artillery","unit_size":"Battalion","unit_name":"23rd Field Regiment, Royal Canadian Artillery"}},{"type":"Feature","geometry":{"type":"Point","coordinates":[-0.2988,49.02654]},"properties":{"date":"1944-08-14","unit_country":"CAN","unit_type":"Infantry","unit_size":"Battalion","unit_name":"Essex Scottish Regiment"}},{"type":"Feature","geometry":{"type":"Point","coordinates":[-0.33883,48.97113]},"properties":{"date":"1944-08-14","unit_country":"CAN","unit_type":"Infantry","unit_size":"Battalion","unit_name":"The Calgary Highlanders"}},{"type":"Feature","geometry":{"type":"Point","coordinates":[-0.30849,49.03243]},"properties":{"date":"1944-08-14","unit_country":"CAN","unit_type":"Infantry","unit_size":"Battalion","unit_name":"Royal Hamilton Light Infantry"}},{"type":"Feature","geometry":{"type":"Point","coordinates":[-0.17363,49.00605]},"properties":{"date":"1944-08-14","unit_country":"CAN","unit_type":"Reconnaissance","unit_size":"Battalion","unit_name":"29th Reconnaissance Regiment (The South Alberta Regiment)"}},{"type":"Feature","geometry":{"type":"Point","coordinates":[-0.31228,48.96134]},"properties":{"date":"1944-08-14","unit_country":"CAN","unit_type":"Infantry","unit_size":"Battalion","unit_name":"Queen's Own Cameron Highlanders of Canada"}},{"type":"Feature","geometry":{"type":"Point","coordinates":[-0.32367,48.96354]},"properties":{"date":"1944-08-14","unit_country":"CAN","unit_type":"Infantry","unit_size":"Battalion","unit_name":"Le Regiment de Maisonneuve"}},{"type":"Feature","geometry":{"type":"Point","coordinates":[-0.34068,48.96503]},"properties":{"date":"1944-08-14","unit_country":"CAN","unit_type":"Infantry","unit_size":"Battalion","unit_name":"Les Fusiliers Mont-Royal"}},{"type":"Feature","geometry":{"type":"Point","coordinates":[-0.23714,48.95859]},"properties":{"date":"1944-08-14","unit_country":"CAN","unit_type":"Infantry","unit_size":"Battalion","unit_name":"The Black Watch (Royal Highalnders) of Canada"}},{"type":"Feature","geometry":{"type":"Point","coordinates":[-0.30705,48.96048]},"properties":{"date":"1944-08-14","unit_country":"CAN","unit_type":"Infantry","unit_size":"Battalion","unit_name":"The South Sasketchewan Regiment"}},{"type":"Feature","geometry":{"type":"Point","coordinates":[-0.16465,48.9641]},"properties":{"date":"1944-08-14","unit_country":"CAN","unit_type":"Armoured","unit_size":"Battalion","unit_name":"28th Armoured Regiment (The British Columbia Regiment, Duke of Connaught's Own Rifles)"}},{"type":"Feature","geometry":{"type":"Point","coordinates":[-0.20625,49.21408]},"properties":{"date":"1944-08-14","unit_country":"CAN","unit_type":"Airborne","unit_size":"Battalion","unit_name":"1st Canadian Parachute Battalion"}},{"type":"Feature","geometry":{"type":"Point","coordinates":[-0.32847,49.06535]},"properties":{"date":"1944-08-14","unit_country":"CAN","unit_type":"Engineer","unit_size":"Company","unit_name":"6th Field Company, Royal Canadian Engineers"}},{"type":"Feature","geometry":{"type":"Point","coordinates":[-0.29636,49.06461]},"properties":{"date":"1944-08-14","unit_country":"CAN","unit_type":"Infantry","unit_size":"Division","unit_name":"3rd Canadian Infantry Division"}},{"type":"Feature","geometry":{"type":"Point","coordinates":[-0.23824,49.0095]},"properties":{"date":"1944-08-14","unit_country":"CAN","unit_type":"Armoured","unit_size":"Battalion","unit_name":"10th Canadian Armoured Regiment (The Fort Garry Horse)"}},{"type":"Feature","geometry":{"type":"Point","coordinates":[-0.29621,49.01518]},"properties":{"date":"1944-08-14","unit_country":"CAN","unit_type":"Artillery","unit_size":"Battalion","unit_name":"5th Field Regiment, Royal Canadian Artillery"}},{"type":"Feature","geometry":{"type":"Point","coordinates":[-0.29955,49.00326]},"properties":{"date":"1944-08-14","unit_country":"CAN","unit_type":"Artillery","unit_size":"Battalion","unit_name":"6th Field Regiment, Royal Canadian Artillery"}},{"type":"Feature","geometry":{"type":"Point","coordinates":[-0.29747,49.0067]},"properties":{"date":"1944-08-14","unit_country":"CAN","unit_type":"Artillery","unit_size":"Battalion","unit_name":"4th Field Regiment, Royal Canadian Artillery"}},{"type":"Feature","geometry":{"type":"Point","coordinates":[-0.3424,48.99038]},"properties":{"date":"1944-08-14","unit_country":"CAN","unit_type":"Reconnaissance","unit_size":"Battalion","unit_name":"8th Reconnaissance Regiment (14th Canadian Hussars)"}},{"type":"Feature","geometry":{"type":"Point","coordinates":[-0.27158,49.08725]},"properties":{"date":"1944-08-14","unit_country":"Can","unit_type":"Infantry","unit_size":"Battalion","unit_name":"Regiment de la Chaudiere"}},{"type":"Feature","geometry":{"type":"Point","coordinates":[-0.30326,49.07449]},"properties":{"date":"1944-08-14","unit_country":"CAN","unit_type":"Engineer","unit_size":"Company","unit_name":"18th Field Company Royal Canadian Engineers"}},{"type":"Feature","geometry":{"type":"Point","coordinates":[-0.34703,49.21392]},"properties":{"date":"1944-08-14","unit_country":"CAN","unit_type":"Engineer","unit_size":"Company","unit_name":"5th Field Company Royal Canadian Engineers"}},{"type":"Feature","geometry":{"type":"Point","coordinates":[-0.3185,49.05206]},"properties":{"date":"1944-08-14","unit_country":"CAN","unit_type":"Engineer","unit_size":"Company","unit_name":"16th Field Company Royal Canadian Engineers"}},{"type":"Feature","geometry":{"type":"Point","coordinates":[-0.32253,48.96731]},"properties":{"date":"1944-08-14","unit_country":"CAN","unit_type":"Infantry","unit_size":"Platoon","unit_name":"Toronto Scottish Regiment"}},{"type":"Feature","geometry":{"type":"Point","coordinates":[-0.23978,48.9791]},"properties":{"date":"1944-08-14","unit_country":"CAN","unit_type":"Infantry","unit_size":"Company","unit_name":"Toronto Scottish Regiment"}},{"type":"Feature","geometry":{"type":"Point","coordinates":[-0.3237,48.96368]},"properties":{"date":"1944-08-14","unit_country":"CAN","unit_type":"Infantry","unit_size":"Platoon","unit_name":"Toronto Scottish Regiment"}},{"type":"Feature","geometry":{"type":"Point","coordinates":[-0.26972,49.06916]},"properties":{"date":"1944-08-14","unit_country":"CAN","unit_type":"Engineer","unit_size":"Company","unit_name":"6th Field Park Squadron"}},{"type":"Feature","geometry":{"type":"Point","coordinates":[-0.30806,49.08]},"properties":{"date":"1944-08-14","unit_country":"CAN","unit_type":"Infantry","unit_size":"Battalion","unit_name":"The Cameron Highlanders of Ottawa (Duke of Edinburgh's Own)"}}]}