{"type":"FeatureCollection","features":[{"type":"Feature","geometry":{"type":"Point","coordinates":[-0.82256,49.17659]},"properties":{"date":"1944-08-07","unit_country":"GB","unit_type":"Infantry","unit_size":"Army Group","unit_name":"Twenty-First Army Group"}},{"type":"Feature","geometry":{"type":"Point","coordinates":[-0.85766,48.90687]},"properties":{"date":"1944-08-07","unit_country":"GB","unit_type":"Infantry","unit_size":"Division","unit_name":"3rd Infantry Division"}},{"type":"Feature","geometry":{"type":"Point","coordinates":[-0.84871,49.04888]},"properties":{"date":"1944-08-07","unit_country":"GB","unit_type":"Infantry","unit_size":"Corp","unit_name":"Eigth Corps"}},{"type":"Feature","geometry":{"type":"Point","coordinates":[-0.24462,49.21025]},"properties":{"date":"1944-08-07","unit_country":"GB","unit_type":"Airborne","unit_size":"Division","unit_name":"6th Airborne Division"}},{"type":"Feature","geometry":{"type":"Point","coordinates":[-0.45461,49.28659]},"properties":{"date":"1944-08-07","unit_country":"CAN","unit_type":"Infantry","unit_size":"Army","unit_name":"First Army"}},{"type":"Feature","geometry":{"type":"Point","coordinates":[-0.25817,49.16409]},"properties":{"date":"1944-08-07","unit_country":"GB","unit_type":"Infantry","unit_size":"Division","unit_name":"49th Infantry Division"}},{"type":"Feature","geometry":{"type":"Point","coordinates":[-0.351,49.22646]},"properties":{"date":"1944-08-07","unit_country":"GB","unit_type":"Infantry","unit_size":"Division","unit_name":"51st Infantry Division"}},{"type":"Feature","geometry":{"type":"Point","coordinates":[-0.376,49.28827]},"properties":{"date":"1944-08-07","unit_country":"GB","unit_type":"Infantry","unit_size":"Corp","unit_name":"First Corps"}},{"type":"Feature","geometry":{"type":"Point","coordinates":[-0.46055,49.20265]},"properties":{"date":"1944-08-07","unit_country":"CAN","unit_type":"Infantry","unit_size":"Corp","unit_name":"Second Corps"}},{"type":"Feature","geometry":{"type":"Point","coordinates":[-0.93645,48.66687]},"properties":{"date":"1944-08-07","unit_country":"GMN","unit_type":"Mechanized","unit_size":"Division","unit_name":"17th Panzer Grenadier Division"}},{"type":"Feature","geometry":{"type":"Point","coordinates":[-0.62413,48.99278]},"properties":{"date":"1944-08-07","unit_country":"GB","unit_type":"Armoured","unit_size":"Division","unit_name":"7th Armoured Division"}},{"type":"Feature","geometry":{"type":"Point","coordinates":[-0.46565,49.07414]},"properties":{"date":"1944-08-07","unit_country":"GB","unit_type":"Infantry","unit_size":"Division","unit_name":"53rd Infantry Division"}},{"type":"Feature","geometry":{"type":"Point","coordinates":[-0.70487,48.94992]},"properties":{"date":"1944-08-07","unit_country":"GB","unit_type":"Infantry","unit_size":"Division","unit_name":"43rd Infantry Division"}},{"type":"Feature","geometry":{"type":"Point","coordinates":[-0.69412,49.0221]},"properties":{"date":"1944-08-07","unit_country":"GB","unit_type":"Infantry","unit_size":"Division","unit_name":"50th Infantry Division"}},{"type":"Feature","geometry":{"type":"Point","coordinates":[-0.82025,48.89255]},"properties":{"date":"1944-08-07","unit_country":"GB","unit_type":"Armoured","unit_size":"Division","unit_name":"Guards Division"}},{"type":"Feature","geometry":{"type":"Point","coordinates":[-0.72765,49.03484]},"properties":{"date":"1944-08-07","unit_country":"GB","unit_type":"Infantry","unit_size":"Corp","unit_name":"Thirty Corps"}},{"type":"Feature","geometry":{"type":"Point","coordinates":[-1.07624,48.87374]},"properties":{"date":"1944-08-07","unit_country":"USA","unit_type":"Infantry","unit_size":"Corp","unit_name":"Nineteenth Corps"}},{"type":"Feature","geometry":{"type":"Point","coordinates":[-0.98498,49.05541]},"properties":{"date":"1944-08-07","unit_country":"USA","unit_type":"Infantry","unit_size":"Corp","unit_name":"Fifth Corps"}},{"type":"Feature","geometry":{"type":"Point","coordinates":[-1.15833,48.84557]},"properties":{"date":"1944-08-07","unit_country":"USA","unit_type":"Infantry","unit_size":"Corp","unit_name":"Eighth Corps"}},{"type":"Feature","geometry":{"type":"Point","coordinates":[-1.24683,48.63348]},"properties":{"date":"1944-08-07","unit_country":"USA","unit_type":"Infantry","unit_size":"Corp","unit_name":"Twelfth Corps"}},{"type":"Feature","geometry":{"type":"Point","coordinates":[-1.37153,48.84063]},"properties":{"date":"1944-08-07","unit_country":"USA","unit_type":"Infantry","unit_size":"Army","unit_name":"Third Army"}},{"type":"Feature","geometry":{"type":"Point","coordinates":[-1.17291,49.07309]},"properties":{"date":"1944-08-07","unit_country":"USA","unit_type":"Infantry","unit_size":"Army","unit_name":"First Army"}},{"type":"Feature","geometry":{"type":"Point","coordinates":[-0.47383,49.24123]},"properties":{"date":"1944-08-07","unit_country":"GB","unit_type":"Infantry","unit_size":"Army","unit_name":"Second Army"}},{"type":"Feature","geometry":{"type":"Point","coordinates":[-1.03833,48.68267]},"properties":{"date":"1944-08-07","unit_country":"USA","unit_type":"Infantry","unit_size":"Division","unit_name":"30th Infantry Division"}},{"type":"Feature","geometry":{"type":"Point","coordinates":[-1.01734,48.8192]},"properties":{"date":"1944-08-07","unit_country":"USA","unit_type":"Infantry","unit_size":"Division","unit_name":"28th Infantry Division"}},{"type":"Feature","geometry":{"type":"Point","coordinates":[-1.1046,48.7317]},"properties":{"date":"1944-08-07","unit_country":"USA","unit_type":"Infantry","unit_size":"Division","unit_name":"4th Infantry Division"}},{"type":"Feature","geometry":{"type":"Point","coordinates":[-1.03857,48.78308]},"properties":{"date":"1944-08-07","unit_country":"USA","unit_type":"Infantry","unit_size":"Division","unit_name":"9th Infantry Division"}},{"type":"Feature","geometry":{"type":"Point","coordinates":[-1.32849,48.84383]},"properties":{"date":"1944-08-07","unit_country":"USA","unit_type":"Armoured","unit_size":"Division","unit_name":"3rd Armoured Division"}},{"type":"Feature","geometry":{"type":"Point","coordinates":[-0.17818,49.2499]},"properties":{"date":"1944-08-07","unit_country":"GMN","unit_type":"Infantry","unit_size":"Division","unit_name":"711th Infantry Division"}},{"type":"Feature","geometry":{"type":"Point","coordinates":[-0.17532,49.14764]},"properties":{"date":"1944-08-07","unit_country":"GMN","unit_type":"Infantry","unit_size":"Division","unit_name":"272nd Infantry Division"}},{"type":"Feature","geometry":{"type":"Point","coordinates":[-0.17568,49.20842]},"properties":{"date":"1944-08-07","unit_country":"GMN","unit_type":"Infantry","unit_size":"Division","unit_name":"346th Infantry Division"}},{"type":"Feature","geometry":{"type":"Point","coordinates":[-0.25435,48.99557]},"properties":{"date":"1944-08-07","unit_country":"GMN","unit_type":"Armoured","unit_size":"Division","unit_name":"12th SS Panzer Division"}},{"type":"Feature","geometry":{"type":"Point","coordinates":[-0.74132,48.85693]},"properties":{"date":"1944-08-07","unit_country":"GMN","unit_type":"Armoured","unit_size":"Division","unit_name":"9th SS Panzer Division"}},{"type":"Feature","geometry":{"type":"Point","coordinates":[-0.9742,48.72656]},"properties":{"date":"1944-08-07","unit_country":"GMN","unit_type":"Infantry","unit_size":"Division","unit_name":"84th Infantry Division"}},{"type":"Feature","geometry":{"type":"Point","coordinates":[-0.63626,48.89912]},"properties":{"date":"1944-08-07","unit_country":"GMN","unit_type":"Armoured","unit_size":"Division","unit_name":"21st Panzer Division"}},{"type":"Feature","geometry":{"type":"Point","coordinates":[-0.89459,48.71794]},"properties":{"date":"1944-08-07","unit_country":"GMN","unit_type":"Armoured","unit_size":"Division","unit_name":"116th Panzer Division"}},{"type":"Feature","geometry":{"type":"Point","coordinates":[-0.97085,48.61044]},"properties":{"date":"1944-08-07","unit_country":"USA","unit_type":"Armoured","unit_size":"Division","unit_name":"2nd Armoured Division"}},{"type":"Feature","geometry":{"type":"Point","coordinates":[-0.85191,48.86698]},"properties":{"date":"1944-08-07","unit_country":"GB","unit_type":"Armoured","unit_size":"Division","unit_name":"11th Armoured Division"}},{"type":"Feature","geometry":{"type":"Point","coordinates":[-1.16918,48.55242]},"properties":{"date":"1944-08-07","unit_country":"USA","unit_type":"Infantry","unit_size":"Corp","unit_name":"Twentieth Corps"}},{"type":"Feature","geometry":{"type":"Point","coordinates":[-1.41817,49.1111]},"properties":{"date":"1944-08-07","unit_country":"USA","unit_type":"Infantry","unit_size":"Army Group","unit_name":"Twelfth Army Group"}},{"type":"Feature","geometry":{"type":"Point","coordinates":[-0.72973,48.72135]},"properties":{"date":"1944-08-07","unit_country":"GMN","unit_type":"Armoured","unit_size":"Division","unit_name":"Panzer Lehr Division"}},{"type":"Feature","geometry":{"type":"Point","coordinates":[-0.69552,48.3225]},"properties":{"date":"1944-08-07","unit_country":"USA","unit_type":"Infantry","unit_size":"Division","unit_name":"1st Infantry Division"}},{"type":"Feature","geometry":{"type":"Point","coordinates":[-0.90555,48.64208]},"properties":{"date":"1944-08-07","unit_country":"GMN","unit_type":"Armoured","unit_size":"Division","unit_name":"2nd SS Panzer Division"}},{"type":"Feature","geometry":{"type":"Point","coordinates":[-0.39497,49.0373]},"properties":{"date":"1944-08-07","unit_country":"GMN","unit_type":"Infantry","unit_size":"Division","unit_name":"271st Infantry Division"}},{"type":"Feature","geometry":{"type":"Point","coordinates":[-0.49575,48.95154]},"properties":{"date":"1944-08-07","unit_country":"GMN","unit_type":"Infantry","unit_size":"Division","unit_name":"276th Infantry Division"}},{"type":"Feature","geometry":{"type":"Point","coordinates":[-0.42424,48.98573]},"properties":{"date":"1944-08-07","unit_country":"GMN","unit_type":"Infantry","unit_size":"Division","unit_name":"277th Infantry Division"}},{"type":"Feature","geometry":{"type":"Point","coordinates":[-0.58792,48.94837]},"properties":{"date":"1944-08-07","unit_country":"GMN","unit_type":"Infantry","unit_size":"Division","unit_name":"326th Infantry Division"}},{"type":"Feature","geometry":{"type":"Point","coordinates":[-0.9089,48.78946]},"properties":{"date":"1944-08-07","unit_country":"GMN","unit_type":"Infantry","unit_size":"Division","unit_name":"363rd Infantry Division"}},{"type":"Feature","geometry":{"type":"Point","coordinates":[-0.67691,47.98294]},"properties":{"date":"1944-08-07","unit_country":"GMN","unit_type":"Infantry","unit_size":"Division","unit_name":"708th Infantry Division"}},{"type":"Feature","geometry":{"type":"Point","coordinates":[-0.80549,48.84175]},"properties":{"date":"1944-08-07","unit_country":"GMN","unit_type":"Airborne","unit_size":"Division","unit_name":"3rd Fallschirmjäger Division"}},{"type":"Feature","geometry":{"type":"Point","coordinates":[-0.87584,48.69287]},"properties":{"date":"1944-08-07","unit_country":"GMN","unit_type":"Armoured","unit_size":"Division","unit_name":"1st SS Panzer Division"}},{"type":"Feature","geometry":{"type":"Point","coordinates":[-0.63985,48.83288]},"properties":{"date":"1944-08-07","unit_country":"GMN","unit_type":"Armoured","unit_size":"Division","unit_name":"10th SS Panzer Division"}},{"type":"Feature","geometry":{"type":"Point","coordinates":[-0.54216,49.01885]},"properties":{"date":"1944-08-07","unit_country":"GB","unit_type":"Infantry","unit_size":"Division","unit_name":"59th Infantry Division"}},{"type":"Feature","geometry":{"type":"Point","coordinates":[-1.06888,48.63128]},"properties":{"date":"1944-08-07","unit_country":"USA","unit_type":"Infantry","unit_size":"Division","unit_name":"35th Infantry Division"}},{"type":"Feature","geometry":{"type":"Point","coordinates":[-0.777,48.91341]},"properties":{"date":"1944-08-07","unit_country":"GB","unit_type":"Infantry","unit_size":"Division","unit_name":"15th Infantry Division"}},{"type":"Feature","geometry":{"type":"Point","coordinates":[-0.94766,48.8391]},"properties":{"date":"1944-08-07","unit_country":"USA","unit_type":"Infantry","unit_size":"Division","unit_name":"29th Infantry Division"}},{"type":"Feature","geometry":{"type":"Point","coordinates":[-0.92172,48.88437]},"properties":{"date":"1944-08-07","unit_country":"USA","unit_type":"Infantry","unit_size":"Division","unit_name":"2nd Infantry Division"}},{"type":"Feature","geometry":{"type":"Point","coordinates":[-0.5511,49.15288]},"properties":{"date":"1944-08-07","unit_country":"GB","unit_type":"Infantry","unit_size":"Corp","unit_name":"Twelfth Corps"}},{"type":"Feature","geometry":{"type":"Point","coordinates":[-0.03018,48.65763]},"properties":{"date":"1944-08-07","unit_country":"GMN","unit_type":"Infantry","unit_size":"Army Group","unit_name":"OB West"}},{"type":"Feature","geometry":{"type":"Point","coordinates":[-0.13712,48.97327]},"properties":{"date":"1944-08-07","unit_country":"GMN","unit_type":"Armoured","unit_size":"Corp","unit_name":"First SS Panzer Corps"}},{"type":"Feature","geometry":{"type":"Point","coordinates":[-0.41953,48.81502]},"properties":{"date":"1944-08-07","unit_country":"GMN","unit_type":"Armoured","unit_size":"Corp","unit_name":"Second SS Panzer Corps"}},{"type":"Feature","geometry":{"type":"Point","coordinates":[-0.63685,48.63586]},"properties":{"date":"1944-08-07","unit_country":"GMN","unit_type":"Airborne","unit_size":"Corp","unit_name":"Second Fallschirmjäger Corps"}},{"type":"Feature","geometry":{"type":"Point","coordinates":[-0.78304,48.60306]},"properties":{"date":"1944-08-07","unit_country":"GMN","unit_type":"Armoured","unit_size":"Corp","unit_name":"Fourty-seventh Panzer Corps"}},{"type":"Feature","geometry":{"type":"Point","coordinates":[-0.03977,49.17412]},"properties":{"date":"1944-08-07","unit_country":"GMN","unit_type":"Infantry","unit_size":"Corp","unit_name":"Eighty-sixth Corps"}},{"type":"Feature","geometry":{"type":"Point","coordinates":[-0.67454,48.03262]},"properties":{"date":"1944-08-07","unit_country":"USA","unit_type":"Armoured","unit_size":"Division","unit_name":"5th Armoured Division"}},{"type":"Feature","geometry":{"type":"Point","coordinates":[-1.65232,48.08562]},"properties":{"date":"1944-08-07","unit_country":"USA","unit_type":"Infantry","unit_size":"Division","unit_name":"8th Infantry Division"}},{"type":"Feature","geometry":{"type":"Point","coordinates":[-1.93011,48.62536]},"properties":{"date":"1944-08-07","unit_country":"USA","unit_type":"Infantry","unit_size":"Division","unit_name":"83rd Infantry Division"}},{"type":"Feature","geometry":{"type":"Point","coordinates":[-1.85694,48.51999]},"properties":{"date":"1944-08-07","unit_country":"USA","unit_type":"Infantry","unit_size":"Corp","unit_name":"Eighth Corps"}},{"type":"Feature","geometry":{"type":"Point","coordinates":[-0.87642,48.5417]},"properties":{"date":"1944-08-07","unit_country":"GMN","unit_type":"Infantry","unit_size":"Corp","unit_name":"Eighty-fourth Corps"}},{"type":"Feature","geometry":{"type":"Point","coordinates":[-1.26821,48.39444]},"properties":{"date":"1944-08-07","unit_country":"USA","unit_type":"Infantry","unit_size":"Division","unit_name":"5th Infantry Division"}},{"type":"Feature","geometry":{"type":"Point","coordinates":[-1.32787,48.61239]},"properties":{"date":"1944-08-07","unit_country":"FRE","unit_type":"Armoured","unit_size":"Division","unit_name":"2nd Armoured Division"}},{"type":"Feature","geometry":{"type":"Point","coordinates":[-0.93887,48.14036]},"properties":{"date":"1944-08-07","unit_country":"USA","unit_type":"Infantry","unit_size":"Corp","unit_name":"Fifteenth Corps"}},{"type":"Feature","geometry":{"type":"Point","coordinates":[-0.64775,48.25576]},"properties":{"date":"1944-08-07","unit_country":"USA","unit_type":"Infantry","unit_size":"Division","unit_name":"90th Infantry Division"}},{"type":"Feature","geometry":{"type":"Point","coordinates":[-0.97307,48.75225]},"properties":{"date":"1944-08-07","unit_country":"GMN","unit_type":"Infantry","unit_size":"Division","unit_name":"343rd Infantry Division"}},{"type":"Feature","geometry":{"type":"Point","coordinates":[-0.95579,48.69834]},"properties":{"date":"1944-08-07","unit_country":"GMN","unit_type":"Armoured","unit_size":"Division","unit_name":"2nd Panzer Division"}},{"type":"Feature","geometry":{"type":"Point","coordinates":[-0.78513,48.0675]},"properties":{"date":"1944-08-07","unit_country":"USA","unit_type":"Infantry","unit_size":"Division","unit_name":"79th Infantry Division"}},{"type":"Feature","geometry":{"type":"Point","coordinates":[-0.13831,48.21123]},"properties":{"date":"1944-08-07","unit_country":"GMN","unit_type":"Infantry","unit_size":"Army","unit_name":"Seventh Army"}},{"type":"Feature","geometry":{"type":"Point","coordinates":[-1.33898,49.23872]},"properties":{"date":"1944-08-07","unit_country":"GMN","unit_type":"Airborne","unit_size":"Regiment","unit_name":"6 Regiment"}},{"type":"Feature","geometry":{"type":"Point","coordinates":[-0.43382,49.26991]},"properties":{"date":"1944-08-07","unit_country":"CAN","unit_type":"Infantry","unit_size":"Brigade","unit_name":"8th Canadian Infantry Brigade"}},{"type":"Feature","geometry":{"type":"Point","coordinates":[-0.44622,49.25108]},"properties":{"date":"1944-08-07","unit_country":"CAN","unit_type":"Infantry","unit_size":"Brigade","unit_name":"9th Canadian Infantry Brigade"}},{"type":"Feature","geometry":{"type":"Point","coordinates":[-0.40723,49.26605]},"properties":{"date":"1944-08-07","unit_country":"CAN","unit_type":"Infantry","unit_size":"Brigade","unit_name":"7th Canadian Infantry Brigade"}},{"type":"Feature","geometry":{"type":"Point","coordinates":[-0.38798,49.16121]},"properties":{"date":"1944-08-07","unit_country":"CAN","unit_type":"Infantry","unit_size":"Brigade","unit_name":"4th Canadian Infantry Brigade"}},{"type":"Feature","geometry":{"type":"Point","coordinates":[-0.38474,49.14768]},"properties":{"date":"1944-08-07","unit_country":"CAN","unit_type":"Infantry","unit_size":"Brigade","unit_name":"10th Canadian Infantry Brigade"}},{"type":"Feature","geometry":{"type":"Point","coordinates":[-0.31299,49.14841]},"properties":{"date":"1944-08-07","unit_country":"CAN","unit_type":"Armoured","unit_size":"Brigade","unit_name":"4th Canadian Armoured Brigade"}},{"type":"Feature","geometry":{"type":"Point","coordinates":[-0.34836,49.1395]},"properties":{"date":"1944-08-07","unit_country":"CAN","unit_type":"Infantry","unit_size":"Brigade","unit_name":"6th Canadian Infantry Brigade"}},{"type":"Feature","geometry":{"type":"Point","coordinates":[-0.36611,49.16795]},"properties":{"date":"1944-08-07","unit_country":"CAN","unit_type":"Infantry","unit_size":"Division","unit_name":"2nd Canadian Infantry Division"}},{"type":"Feature","geometry":{"type":"Point","coordinates":[-0.44626,49.27487]},"properties":{"date":"1944-08-07","unit_country":"CAN","unit_type":"Infantry","unit_size":"Battalion","unit_name":"The Queen?s Own Rifles of Canadaÿ"}},{"type":"Feature","geometry":{"type":"Point","coordinates":[-0.44811,49.28013]},"properties":{"date":"1944-08-07","unit_country":"CAN","unit_type":"Infantry","unit_size":"Battalion","unit_name":"The North Nova Scotia Highlanders"}},{"type":"Feature","geometry":{"type":"Point","coordinates":[-0.42265,49.27861]},"properties":{"date":"1944-08-07","unit_country":"CAN","unit_type":"Infantry","unit_size":"Battalion","unit_name":"North Shore (New Brunswick) Regiment"}},{"type":"Feature","geometry":{"type":"Point","coordinates":[-0.413,49.26486]},"properties":{"date":"1944-08-07","unit_country":"CAN","unit_type":"Infantry","unit_size":"Battalion","unit_name":"The Canadian Scottish Regiment"}},{"type":"Feature","geometry":{"type":"Point","coordinates":[-0.33987,49.16789]},"properties":{"date":"1944-08-07","unit_country":"CAN","unit_type":"Armoured","unit_size":"Division","unit_name":"4th Armoured Division"}},{"type":"Feature","geometry":{"type":"Point","coordinates":[-0.41,49.26424]},"properties":{"date":"1944-08-07","unit_country":"CAN","unit_type":"Infantry","unit_size":"Battalion","unit_name":"The Regina Rifles"}},{"type":"Feature","geometry":{"type":"Point","coordinates":[-0.41258,49.26442]},"properties":{"date":"1944-08-07","unit_country":"CAN","unit_type":"Infantry","unit_size":"Battalion","unit_name":"The Royal Winnipeg Rifles"}},{"type":"Feature","geometry":{"type":"Point","coordinates":[-0.30057,49.17534]},"properties":{"date":"1944-08-07","unit_country":"CAN","unit_type":"Armoured","unit_size":"Battalion","unit_name":"21st Armoured Regiment (The Governor General?s Foot Guards)"}},{"type":"Feature","geometry":{"type":"Point","coordinates":[-0.4473,49.24162]},"properties":{"date":"1944-08-07","unit_country":"CAN","unit_type":"Infantry","unit_size":"Battalion","unit_name":"Highland Light Infantry of Canada"}},{"type":"Feature","geometry":{"type":"Point","coordinates":[-0.44142,49.25073]},"properties":{"date":"1944-08-07","unit_country":"CAN","unit_type":"Infantry","unit_size":"Battalion","unit_name":"Stormont, Dundas & Glengarry Highlanders"}},{"type":"Feature","geometry":{"type":"Point","coordinates":[-0.3473,49.16596]},"properties":{"date":"1944-08-07","unit_country":"CAN","unit_type":"Armoured","unit_size":"Battalion","unit_name":"6th Canadian Armoured Regiment (1st Hussars)ÿ"}},{"type":"Feature","geometry":{"type":"Point","coordinates":[-0.45812,49.26147]},"properties":{"date":"1944-08-07","unit_country":"CAN","unit_type":"Reconnaissance","unit_size":"Battalion","unit_name":"7th Reconnaissance Regiment (17th Duke of York's Royal Canadian Hussars)"}},{"type":"Feature","geometry":{"type":"Point","coordinates":[-0.42386,49.24964]},"properties":{"date":"1944-08-07","unit_country":"CAN","unit_type":"Artillery","unit_size":"Battalion","unit_name":"12th Field Regiment Royal Canadian Artillery"}},{"type":"Feature","geometry":{"type":"Point","coordinates":[-0.64854,49.31437]},"properties":{"date":"1944-08-07","unit_country":"CAN","unit_type":"Artillery","unit_size":"Battalion","unit_name":"13th Field Regiment Royal Canadian Artillery"}},{"type":"Feature","geometry":{"type":"Point","coordinates":[-0.64851,49.31434]},"properties":{"date":"1944-08-07","unit_country":"CAN","unit_type":"Artillery","unit_size":"Battalion","unit_name":"14th Field Regiment Royal Canadian Artillery"}},{"type":"Feature","geometry":{"type":"Point","coordinates":[-0.31558,49.17253]},"properties":{"date":"1944-08-07","unit_country":"CAN","unit_type":"Armoured","unit_size":"Battalion","unit_name":"22nd Armoured Regiment (Canadian Grenadier Guards)"}},{"type":"Feature","geometry":{"type":"Point","coordinates":[-0.29769,49.13425]},"properties":{"date":"1944-08-07","unit_country":"CAN","unit_type":"Mechanized","unit_size":"Battalion","unit_name":"The Lake Superior Regiment"}},{"type":"Feature","geometry":{"type":"Point","coordinates":[-0.33828,49.17539]},"properties":{"date":"1944-08-07","unit_country":"CAN","unit_type":"Infantry","unit_size":"Battalion","unit_name":"The Lincoln & Welland Regiment"}},{"type":"Feature","geometry":{"type":"Point","coordinates":[-0.34509,49.17111]},"properties":{"date":"1944-08-07","unit_country":"CAN","unit_type":"Infantry","unit_size":"Battalion","unit_name":"The Algonquin Regiment"}},{"type":"Feature","geometry":{"type":"Point","coordinates":[-0.34034,49.17019]},"properties":{"date":"1944-08-07","unit_country":"CAN","unit_type":"Infantry","unit_size":"Battalion","unit_name":"The Argyll & Sutherland Highlanders of Canada (Princess Louise's)"}},{"type":"Feature","geometry":{"type":"Point","coordinates":[-0.34809,49.13402]},"properties":{"date":"1944-08-07","unit_country":"CAN","unit_type":"Armoured","unit_size":"Battalion","unit_name":"27th Canadian Armoured Regiment (The Sherbrooke Fusiliers)ÿ"}},{"type":"Feature","geometry":{"type":"Point","coordinates":[-0.39119,49.13856]},"properties":{"date":"1944-08-07","unit_country":"CAN","unit_type":"Infantry","unit_size":"Brigade","unit_name":"5th Canadian Infantry Brigade"}},{"type":"Feature","geometry":{"type":"Point","coordinates":[-0.33445,49.13678]},"properties":{"date":"1944-08-07","unit_country":"CAN","unit_type":"Artillery","unit_size":"Battalion","unit_name":"19th Field Regiment Royal Canadian Artillery"}},{"type":"Feature","geometry":{"type":"Point","coordinates":[-0.34162,49.12502]},"properties":{"date":"1944-08-07","unit_country":"CAN","unit_type":"Infantry","unit_size":"Battalion","unit_name":"The Royal Regiment of Canada"}},{"type":"Feature","geometry":{"type":"Point","coordinates":[-0.33701,49.1571]},"properties":{"date":"1944-08-07","unit_country":"CAN","unit_type":"Armoured","unit_size":"Brigade","unit_name":"2nd Canadian Armoured Brigade"}},{"type":"Feature","geometry":{"type":"Point","coordinates":[-0.33113,49.14765]},"properties":{"date":"1944-08-07","unit_country":"CAN","unit_type":"Artillery","unit_size":"Battalion","unit_name":"15th Field Regiment, Royal Canadian Artillery"}},{"type":"Feature","geometry":{"type":"Point","coordinates":[-0.31293,49.16705]},"properties":{"date":"1944-08-07","unit_country":"CAN","unit_type":"Artillery","unit_size":"Battalion","unit_name":"23rd Field Regiment, Royal Canadian Artillery"}},{"type":"Feature","geometry":{"type":"Point","coordinates":[-0.33251,49.12176]},"properties":{"date":"1944-08-07","unit_country":"CAN","unit_type":"Infantry","unit_size":"Battalion","unit_name":"Essex Scottish Regiment"}},{"type":"Feature","geometry":{"type":"Point","coordinates":[-0.351,49.13686]},"properties":{"date":"1944-08-07","unit_country":"CAN","unit_type":"Infantry","unit_size":"Battalion","unit_name":"The Calgary Highlanders"}},{"type":"Feature","geometry":{"type":"Point","coordinates":[-0.40427,49.15617]},"properties":{"date":"1944-08-07","unit_country":"CAN","unit_type":"Infantry","unit_size":"Battalion","unit_name":"Royal Hamilton Light Infantry"}},{"type":"Feature","geometry":{"type":"Point","coordinates":[-0.34847,49.17369]},"properties":{"date":"1944-08-07","unit_country":"CAN","unit_type":"Reconnaissance","unit_size":"Battalion","unit_name":"29th Reconnaissance Regiment (The South Alberta Regiment)"}},{"type":"Feature","geometry":{"type":"Point","coordinates":[-0.34841,49.13846]},"properties":{"date":"1944-08-07","unit_country":"CAN","unit_type":"Infantry","unit_size":"Battalion","unit_name":"Queen's Own Cameron Highlanders of Canada"}},{"type":"Feature","geometry":{"type":"Point","coordinates":[-0.33291,49.12169]},"properties":{"date":"1944-08-07","unit_country":"CAN","unit_type":"Infantry","unit_size":"Battalion","unit_name":"Le Regiment de Maisonneuve"}},{"type":"Feature","geometry":{"type":"Point","coordinates":[-0.37208,49.10965]},"properties":{"date":"1944-08-07","unit_country":"CAN","unit_type":"Infantry","unit_size":"Battalion","unit_name":"Les Fusiliers Mont-Royal"}},{"type":"Feature","geometry":{"type":"Point","coordinates":[-0.28665,49.03777]},"properties":{"date":"1944-08-07","unit_country":"CAN","unit_type":"Infantry","unit_size":"Battalion","unit_name":"The Black Watch (Royal Highalnders) of Canada"}},{"type":"Feature","geometry":{"type":"Point","coordinates":[-0.33144,49.11074]},"properties":{"date":"1944-08-07","unit_country":"CAN","unit_type":"Infantry","unit_size":"Battalion","unit_name":"The South Sasketchewan Regiment"}},{"type":"Feature","geometry":{"type":"Point","coordinates":[-0.31555,49.17084]},"properties":{"date":"1944-08-07","unit_country":"CAN","unit_type":"Armoured","unit_size":"Battalion","unit_name":"28th Armoured Regiment (The British Columbia Regiment, Duke of Connaught's Own Rifles)"}},{"type":"Feature","geometry":{"type":"Point","coordinates":[-0.20625,49.21408]},"properties":{"date":"1944-08-07","unit_country":"CAN","unit_type":"Airborne","unit_size":"Battalion","unit_name":"1st Canadian Parachute Battalion"}},{"type":"Feature","geometry":{"type":"Point","coordinates":[-0.43708,49.25485]},"properties":{"date":"1944-08-07","unit_country":"CAN","unit_type":"Engineer","unit_size":"Company","unit_name":"6th Field Company, Royal Canadian Engineers"}},{"type":"Feature","geometry":{"type":"Point","coordinates":[-0.41348,49.26547]},"properties":{"date":"1944-08-07","unit_country":"CAN","unit_type":"Infantry","unit_size":"Division","unit_name":"3rd Canadian Infantry Division"}},{"type":"Feature","geometry":{"type":"Point","coordinates":[-0.31173,49.06853]},"properties":{"date":"1944-08-07","unit_country":"CAN","unit_type":"Armoured","unit_size":"Battalion","unit_name":"10th Canadian Armoured Regiment (The Fort Garry Horse)"}},{"type":"Feature","geometry":{"type":"Point","coordinates":[-0.35905,49.16315]},"properties":{"date":"1944-08-07","unit_country":"CAN","unit_type":"Artillery","unit_size":"Battalion","unit_name":"5th Field Regiment, Royal Canadian Artillery"}},{"type":"Feature","geometry":{"type":"Point","coordinates":[-0.34628,49.13873]},"properties":{"date":"1944-08-07","unit_country":"CAN","unit_type":"Artillery","unit_size":"Battalion","unit_name":"6th Field Regiment, Royal Canadian Artillery"}},{"type":"Feature","geometry":{"type":"Point","coordinates":[-0.35361,49.14088]},"properties":{"date":"1944-08-07","unit_country":"CAN","unit_type":"Artillery","unit_size":"Battalion","unit_name":"4th Field Regiment, Royal Canadian Artillery"}},{"type":"Feature","geometry":{"type":"Point","coordinates":[-0.35098,49.14157]},"properties":{"date":"1944-08-07","unit_country":"CAN","unit_type":"Reconnaissance","unit_size":"Battalion","unit_name":"8th Reconnaissance Regiment (14th Canadian Hussars)"}},{"type":"Feature","geometry":{"type":"Point","coordinates":[-0.42153,49.27942]},"properties":{"date":"1944-08-07","unit_country":"Can","unit_type":"Infantry","unit_size":"Battalion","unit_name":"Regiment de la Chaudiere"}},{"type":"Feature","geometry":{"type":"Point","coordinates":[-0.4463,49.26042]},"properties":{"date":"1944-08-07","unit_country":"CAN","unit_type":"Engineer","unit_size":"Company","unit_name":"18th Field Company Royal Canadian Engineers"}},{"type":"Feature","geometry":{"type":"Point","coordinates":[-0.34703,49.21392]},"properties":{"date":"1944-08-07","unit_country":"CAN","unit_type":"Engineer","unit_size":"Company","unit_name":"5th Field Company Royal Canadian Engineers"}},{"type":"Feature","geometry":{"type":"Point","coordinates":[-0.42533,49.26241]},"properties":{"date":"1944-08-07","unit_country":"CAN","unit_type":"Engineer","unit_size":"Company","unit_name":"16th Field Company Royal Canadian Engineers"}},{"type":"Feature","geometry":{"type":"Point","coordinates":[-0.33798,49.17481]},"properties":{"date":"1944-08-07","unit_country":"CAN","unit_type":"Engineer","unit_size":"Company","unit_name":"6th Field Park Squadron"}},{"type":"Feature","geometry":{"type":"Point","coordinates":[-0.40194,49.24444]},"properties":{"date":"1944-08-07","unit_country":"CAN","unit_type":"Infantry","unit_size":"Battalion","unit_name":"The Cameron Highlanders of Ottawa (Duke of Edinburgh's Own)"}}]}