{"type":"FeatureCollection","features":[{"type":"Feature","geometry":{"type":"Point","coordinates":[-1.60614,49.69043]},"properties":{"date":"1944-06-27","unit_country":"GMN","unit_type":"Infantry","unit_size":"Division","unit_name":"709th Infantry Division"}},{"type":"Feature","geometry":{"type":"Point","coordinates":[-1.73368,49.68263]},"properties":{"date":"1944-06-27","unit_country":"GMN","unit_type":"Infantry","unit_size":"Division","unit_name":"243rd Infantry Division"}},{"type":"Feature","geometry":{"type":"Point","coordinates":[-1.58284,49.32045]},"properties":{"date":"1944-06-27","unit_country":"GMN","unit_type":"Infantry","unit_size":"Division","unit_name":"91st Infantry Division"}},{"type":"Feature","geometry":{"type":"Point","coordinates":[-1.48727,49.63556]},"properties":{"date":"1944-06-27","unit_country":"USA","unit_type":"Infantry","unit_size":"Division","unit_name":"4th Infantry Division"}},{"type":"Feature","geometry":{"type":"Point","coordinates":[-1.34733,49.33478]},"properties":{"date":"1944-06-27","unit_country":"USA","unit_type":"Infantry","unit_size":"Division","unit_name":"90th Infantry Division"}},{"type":"Feature","geometry":{"type":"Point","coordinates":[-1.45946,49.40398]},"properties":{"date":"1944-06-27","unit_country":"USA","unit_type":"Airborne","unit_size":"Division","unit_name":"82nd Airborne Division"}},{"type":"Feature","geometry":{"type":"Point","coordinates":[-1.2881,49.30921]},"properties":{"date":"1944-06-27","unit_country":"USA","unit_type":"Airborne","unit_size":"Division","unit_name":"101st Airborne Division"}},{"type":"Feature","geometry":{"type":"Point","coordinates":[-1.50277,49.48296]},"properties":{"date":"1944-06-27","unit_country":"USA","unit_type":"Infantry","unit_size":"Corp","unit_name":"Seventh Corps"}},{"type":"Feature","geometry":{"type":"Point","coordinates":[-1.70479,49.62973]},"properties":{"date":"1944-06-27","unit_country":"USA","unit_type":"Infantry","unit_size":"Division","unit_name":"9th Infantry Division"}},{"type":"Feature","geometry":{"type":"Point","coordinates":[-1.45273,49.30944]},"properties":{"date":"1944-06-27","unit_country":"GMN","unit_type":"Infantry","unit_size":"Division","unit_name":"265th Infantry Division"}},{"type":"Feature","geometry":{"type":"Point","coordinates":[-1.27457,49.25063]},"properties":{"date":"1944-06-27","unit_country":"GMN","unit_type":"Armoured","unit_size":"Division","unit_name":"17th Panzer Division"}},{"type":"Feature","geometry":{"type":"Point","coordinates":[-1.14791,49.12287]},"properties":{"date":"1944-06-27","unit_country":"GMN","unit_type":"Infantry","unit_size":"Division","unit_name":"352nd Infantry Division"}},{"type":"Feature","geometry":{"type":"Point","coordinates":[-0.8873,49.07206]},"properties":{"date":"1944-06-27","unit_country":"GMN","unit_type":"Airborne","unit_size":"Division","unit_name":"3rd Fallschirmjäger Division"}},{"type":"Feature","geometry":{"type":"Point","coordinates":[-1.03948,49.17749]},"properties":{"date":"1944-06-27","unit_country":"USA","unit_type":"Infantry","unit_size":"Division","unit_name":"29th Infantry Division"}},{"type":"Feature","geometry":{"type":"Point","coordinates":[-0.94835,49.1501]},"properties":{"date":"1944-06-27","unit_country":"USA","unit_type":"Infantry","unit_size":"Division","unit_name":"2nd Infantry Division"}},{"type":"Feature","geometry":{"type":"Point","coordinates":[-0.82677,49.11484]},"properties":{"date":"1944-06-27","unit_country":"USA","unit_type":"Infantry","unit_size":"Division","unit_name":"1st Infantry Division"}},{"type":"Feature","geometry":{"type":"Point","coordinates":[-0.99726,49.39232]},"properties":{"date":"1944-06-27","unit_country":"USA","unit_type":"Infantry","unit_size":"Army","unit_name":"First Army"}},{"type":"Feature","geometry":{"type":"Point","coordinates":[-0.87473,49.15234]},"properties":{"date":"1944-06-27","unit_country":"USA","unit_type":"Armoured","unit_size":"Division","unit_name":"2nd Armoured Division"}},{"type":"Feature","geometry":{"type":"Point","coordinates":[-0.67905,49.16697]},"properties":{"date":"1944-06-27","unit_country":"GB","unit_type":"Infantry","unit_size":"Division","unit_name":"50th Infantry Division"}},{"type":"Feature","geometry":{"type":"Point","coordinates":[-0.62458,49.12036]},"properties":{"date":"1944-06-27","unit_country":"GMN","unit_type":"Armoured","unit_size":"Division","unit_name":"Panzer Lehr Division"}},{"type":"Feature","geometry":{"type":"Point","coordinates":[-0.51143,49.11902]},"properties":{"date":"1944-06-27","unit_country":"GMN","unit_type":"Armoured","unit_size":"Division","unit_name":"12th Panzer Division"}},{"type":"Feature","geometry":{"type":"Point","coordinates":[-0.75135,49.10477]},"properties":{"date":"1944-06-27","unit_country":"GB","unit_type":"Armoured","unit_size":"Division","unit_name":"7th Armoured Division"}},{"type":"Feature","geometry":{"type":"Point","coordinates":[-0.23925,49.22176]},"properties":{"date":"1944-06-27","unit_country":"GB","unit_type":"Infantry","unit_size":"Division","unit_name":"51st Infantry Division"}},{"type":"Feature","geometry":{"type":"Point","coordinates":[-0.34645,49.14181]},"properties":{"date":"1944-06-27","unit_country":"GMN","unit_type":"Infantry","unit_size":"Division","unit_name":"716th Infantry Division"}},{"type":"Feature","geometry":{"type":"Point","coordinates":[-0.34553,49.20892]},"properties":{"date":"1944-06-27","unit_country":"GMN","unit_type":"Infantry","unit_size":"Division","unit_name":"21st Infantry Division"}},{"type":"Feature","geometry":{"type":"Point","coordinates":[-0.34908,49.24938]},"properties":{"date":"1944-06-27","unit_country":"GB","unit_type":"Infantry","unit_size":"Division","unit_name":"3rd Infantry Division"}},{"type":"Feature","geometry":{"type":"Point","coordinates":[-0.21198,49.23671]},"properties":{"date":"1944-06-27","unit_country":"GB","unit_type":"Airborne","unit_size":"Division","unit_name":"6th Airborne Division"}},{"type":"Feature","geometry":{"type":"Point","coordinates":[-0.37013,49.2896]},"properties":{"date":"1944-06-27","unit_country":"GB","unit_type":"Infantry","unit_size":"Corp","unit_name":"First Corps"}},{"type":"Feature","geometry":{"type":"Point","coordinates":[-0.16064,49.24014]},"properties":{"date":"1944-06-27","unit_country":"GMN","unit_type":"Infantry","unit_size":"Division","unit_name":"711th Infantry Division"}},{"type":"Feature","geometry":{"type":"Point","coordinates":[-0.16151,49.17037]},"properties":{"date":"1944-06-27","unit_country":"GMN","unit_type":"Infantry","unit_size":"Division","unit_name":"346th Infantry Division"}},{"type":"Feature","geometry":{"type":"Point","coordinates":[-0.5849,49.16203]},"properties":{"date":"1944-06-27","unit_country":"GB","unit_type":"Infantry","unit_size":"Division","unit_name":"49th Infantry Division"}},{"type":"Feature","geometry":{"type":"Point","coordinates":[-1.02281,49.03923]},"properties":{"date":"1944-06-27","unit_country":"GMN","unit_type":"Armoured","unit_size":"Division","unit_name":"2nd SS Panzer Division"}},{"type":"Feature","geometry":{"type":"Point","coordinates":[-1.35769,49.26988]},"properties":{"date":"1944-06-27","unit_country":"GMN","unit_type":"Airborne","unit_size":"Regiment","unit_name":"6 Regiment"}},{"type":"Feature","geometry":{"type":"Point","coordinates":[-0.748,49.0659]},"properties":{"date":"1944-06-27","unit_country":"GMN","unit_type":"Armoured","unit_size":"Division","unit_name":"2nd Panzer Division"}},{"type":"Feature","geometry":{"type":"Point","coordinates":[-1.07031,49.25764]},"properties":{"date":"1944-06-27","unit_country":"USA","unit_type":"Infantry","unit_size":"Division","unit_name":"30th Infantry Division"}},{"type":"Feature","geometry":{"type":"Point","coordinates":[-1.60465,49.27743]},"properties":{"date":"1944-06-27","unit_country":"GMN","unit_type":"Infantry","unit_size":"Division","unit_name":"243rd Infantry Division"}},{"type":"Feature","geometry":{"type":"Point","coordinates":[-1.60809,49.61041]},"properties":{"date":"1944-06-27","unit_country":"USA","unit_type":"Infantry","unit_size":"Division","unit_name":"79th Infantry Division"}},{"type":"Feature","geometry":{"type":"Point","coordinates":[-0.52039,49.1827]},"properties":{"date":"1944-06-27","unit_country":"GB","unit_type":"Armoured","unit_size":"Division","unit_name":"11th Armoured Division"}},{"type":"Feature","geometry":{"type":"Point","coordinates":[-1.16537,49.22522]},"properties":{"date":"1944-06-27","unit_country":"GMN","unit_type":"Infantry","unit_size":"Division","unit_name":"275th Infantry Division"}},{"type":"Feature","geometry":{"type":"Point","coordinates":[-1.52785,49.34034]},"properties":{"date":"1944-06-27","unit_country":"GMN","unit_type":"Infantry","unit_size":"Division","unit_name":"77th Infantry Division"}},{"type":"Feature","geometry":{"type":"Point","coordinates":[-1.08282,49.29011]},"properties":{"date":"1944-06-27","unit_country":"USA","unit_type":"Armoured","unit_size":"Division","unit_name":"3rd Armoured Division"}},{"type":"Feature","geometry":{"type":"Point","coordinates":[-0.65998,49.34917]},"properties":{"date":"1944-06-27","unit_country":"GB","unit_type":"Armoured","unit_size":"Division","unit_name":"Guards Division"}},{"type":"Feature","geometry":{"type":"Point","coordinates":[-0.51581,49.15433]},"properties":{"date":"1944-06-27","unit_country":"GB","unit_type":"Infantry","unit_size":"Division","unit_name":"43rd Infantry Division"}},{"type":"Feature","geometry":{"type":"Point","coordinates":[-1.10195,48.9867]},"properties":{"date":"1944-06-27","unit_country":"GMN","unit_type":"Airborne","unit_size":"Corp","unit_name":"Second Fallschirmjäger Corps"}},{"type":"Feature","geometry":{"type":"Point","coordinates":[-0.35893,48.97009]},"properties":{"date":"1944-06-27","unit_country":"GMN","unit_type":"Armoured","unit_size":"Corp","unit_name":"First SS Panzer Corps"}},{"type":"Feature","geometry":{"type":"Point","coordinates":[-1.21212,49.35966]},"properties":{"date":"1944-06-27","unit_country":"USA","unit_type":"Infantry","unit_size":"Division","unit_name":"83rd Infantry Division"}},{"type":"Feature","geometry":{"type":"Point","coordinates":[-0.46495,49.28024]},"properties":{"date":"1944-06-27","unit_country":"GB","unit_type":"Infantry","unit_size":"Division","unit_name":"15th Infantry Division"}},{"type":"Feature","geometry":{"type":"Point","coordinates":[-1.44073,49.2321]},"properties":{"date":"1944-06-27","unit_country":"GMN","unit_type":"Infantry","unit_size":"Division","unit_name":"353rd Infantry Division"}},{"type":"Feature","geometry":{"type":"Point","coordinates":[-1.2034,49.26014]},"properties":{"date":"1944-06-27","unit_country":"GMN","unit_type":"Infantry","unit_size":"Division","unit_name":"266th Infantry Division"}},{"type":"Feature","geometry":{"type":"Point","coordinates":[-1.34723,49.13737]},"properties":{"date":"1944-06-27","unit_country":"GMN","unit_type":"Infantry","unit_size":"Corp","unit_name":"84th Corps"}},{"type":"Feature","geometry":{"type":"Point","coordinates":[-0.64607,49.2513]},"properties":{"date":"1944-06-27","unit_country":"GB","unit_type":"Infantry","unit_size":"Corp","unit_name":"Thirty Corps"}},{"type":"Feature","geometry":{"type":"Point","coordinates":[-0.54518,49.26704]},"properties":{"date":"1944-06-27","unit_country":"GB","unit_type":"Infantry","unit_size":"Corp","unit_name":"Eigth Corps"}},{"type":"Feature","geometry":{"type":"Point","coordinates":[-1.02764,49.28538]},"properties":{"date":"1944-06-27","unit_country":"USA","unit_type":"Infantry","unit_size":"Corp","unit_name":"Nineteenth Corps"}},{"type":"Feature","geometry":{"type":"Point","coordinates":[-0.8861,49.29096]},"properties":{"date":"1944-06-27","unit_country":"USA","unit_type":"Infantry","unit_size":"Corp","unit_name":"Fifth Corps"}},{"type":"Feature","geometry":{"type":"Point","coordinates":[-0.61027,48.87047]},"properties":{"date":"1944-06-27","unit_country":"GMN","unit_type":"Armoured","unit_size":"Corp","unit_name":"Fourty-seventh Panzer Corps"}},{"type":"Feature","geometry":{"type":"Point","coordinates":[-0.6437,49.27456]},"properties":{"date":"1944-06-27","unit_country":"GB","unit_type":"Infantry","unit_size":"Corp","unit_name":"Twelfth Corps"}},{"type":"Feature","geometry":{"type":"Point","coordinates":[-1.27626,49.37499]},"properties":{"date":"1944-06-27","unit_country":"USA","unit_type":"Infantry","unit_size":"Corp","unit_name":"Eighth Corps"}},{"type":"Feature","geometry":{"type":"Point","coordinates":[-0.83362,49.27609]},"properties":{"date":"1944-06-27","unit_country":"GB","unit_type":"Infantry","unit_size":"Army Group","unit_name":"Twenty-First Army Group"}},{"type":"Feature","geometry":{"type":"Point","coordinates":[-0.53765,49.2952]},"properties":{"date":"1944-06-27","unit_country":"GB","unit_type":"Infantry","unit_size":"Army","unit_name":"Second Army"}},{"type":"Feature","geometry":{"type":"Point","coordinates":[-0.41061,49.26637]},"properties":{"date":"1944-06-27","unit_country":"CAN","unit_type":"Infantry","unit_size":"Brigade","unit_name":"9th Canadian Infantry Brigade"}},{"type":"Feature","geometry":{"type":"Point","coordinates":[-0.5204,49.23434]},"properties":{"date":"1944-06-27","unit_country":"CAN","unit_type":"Infantry","unit_size":"Brigade","unit_name":"7th Canadian Infantry Brigade"}},{"type":"Feature","geometry":{"type":"Point","coordinates":[-0.44799,49.25181]},"properties":{"date":"1944-06-27","unit_country":"CAN","unit_type":"Infantry","unit_size":"Brigade","unit_name":"8th Canadian Infantry Brigade"}},{"type":"Feature","geometry":{"type":"Point","coordinates":[-0.44902,49.23704]},"properties":{"date":"1944-06-27","unit_country":"CAN","unit_type":"Infantry","unit_size":"Battalion","unit_name":"The Queen?s Own Rifles of Canadaÿ"}},{"type":"Feature","geometry":{"type":"Point","coordinates":[-0.41689,49.23621]},"properties":{"date":"1944-06-27","unit_country":"CAN","unit_type":"Infantry","unit_size":"Battalion","unit_name":"The North Nova Scotia Highlanders"}},{"type":"Feature","geometry":{"type":"Point","coordinates":[-0.44622,49.25108]},"properties":{"date":"1944-06-27","unit_country":"CAN","unit_type":"Infantry","unit_size":"Battalion","unit_name":"North Shore (New Brunswick) Regiment"}},{"type":"Feature","geometry":{"type":"Point","coordinates":[-0.47855,49.21055]},"properties":{"date":"1944-06-27","unit_country":"CAN","unit_type":"Infantry","unit_size":"Battalion","unit_name":"The Canadian Scottish Regiment"}},{"type":"Feature","geometry":{"type":"Point","coordinates":[-0.45959,49.234]},"properties":{"date":"1944-06-27","unit_country":"CAN","unit_type":"Infantry","unit_size":"Battalion","unit_name":"The Royal Winnipeg Rifles"}},{"type":"Feature","geometry":{"type":"Point","coordinates":[-0.48901,49.22597]},"properties":{"date":"1944-06-27","unit_country":"CAN","unit_type":"Infantry","unit_size":"Battalion","unit_name":"The Regina Rifles"}},{"type":"Feature","geometry":{"type":"Point","coordinates":[-0.44052,49.24237]},"properties":{"date":"1944-06-27","unit_country":"CAN","unit_type":"Infantry","unit_size":"Battalion","unit_name":"Highland Light Infantry of Canada"}},{"type":"Feature","geometry":{"type":"Point","coordinates":[-0.44295,49.2373]},"properties":{"date":"1944-06-27","unit_country":"CAN","unit_type":"Infantry","unit_size":"Battalion","unit_name":"Stormont, Dundas & Glengarry Highlanders"}},{"type":"Feature","geometry":{"type":"Point","coordinates":[-0.41431,49.26253]},"properties":{"date":"1944-06-27","unit_country":"CAN","unit_type":"Armoured","unit_size":"Battalion","unit_name":"6th Canadian Armoured Regiment (1st Hussars)ÿ"}},{"type":"Feature","geometry":{"type":"Point","coordinates":[-0.52831,49.22154]},"properties":{"date":"1944-06-27","unit_country":"CAN","unit_type":"Artillery","unit_size":"Battalion","unit_name":"12th Field Regiment Royal Canadian Artillery"}},{"type":"Feature","geometry":{"type":"Point","coordinates":[-0.47194,49.23503]},"properties":{"date":"1944-06-27","unit_country":"CAN","unit_type":"Artillery","unit_size":"Battalion","unit_name":"13th Field Regiment Royal Canadian Artillery"}},{"type":"Feature","geometry":{"type":"Point","coordinates":[-0.48253,49.23193]},"properties":{"date":"1944-06-27","unit_country":"CAN","unit_type":"Artillery","unit_size":"Battalion","unit_name":"14th Field Regiment Royal Canadian Artillery"}},{"type":"Feature","geometry":{"type":"Point","coordinates":[-0.43098,49.25396]},"properties":{"date":"1944-06-27","unit_country":"CAN","unit_type":"Armoured","unit_size":"Battalion","unit_name":"27th Canadian Armoured Regiment (The Sherbrooke Fusiliers)ÿ"}},{"type":"Feature","geometry":{"type":"Point","coordinates":[-0.41941,49.27224]},"properties":{"date":"1944-06-27","unit_country":"CAN","unit_type":"Artillery","unit_size":"Battalion","unit_name":"19th Field Regiment Royal Canadian Artillery"}},{"type":"Feature","geometry":{"type":"Point","coordinates":[-0.40681,49.27094]},"properties":{"date":"1944-06-27","unit_country":"CAN","unit_type":"Armoured","unit_size":"Brigade","unit_name":"2nd Canadian Armoured Brigade"}},{"type":"Feature","geometry":{"type":"Point","coordinates":[-0.21695,49.22695]},"properties":{"date":"1944-06-27","unit_country":"CAN","unit_type":"Airborne","unit_size":"Battalion","unit_name":"1st Canadian Parachute Battalion"}},{"type":"Feature","geometry":{"type":"Point","coordinates":[-0.47625,49.24845]},"properties":{"date":"1944-06-27","unit_country":"CAN","unit_type":"Engineer","unit_size":"Company","unit_name":"6th Field Company, Royal Canadian Engineers"}},{"type":"Feature","geometry":{"type":"Point","coordinates":[-0.44471,49.25936]},"properties":{"date":"1944-06-27","unit_country":"CAN","unit_type":"Infantry","unit_size":"Division","unit_name":"3rd Canadian Infantry Division"}},{"type":"Feature","geometry":{"type":"Point","coordinates":[-0.40193,49.26805]},"properties":{"date":"1944-06-27","unit_country":"CAN","unit_type":"Armoured","unit_size":"Battalion","unit_name":"10th Canadian Armoured Regiment (The Fort Garry Horse)"}},{"type":"Feature","geometry":{"type":"Point","coordinates":[-0.44225,49.242]},"properties":{"date":"1944-06-27","unit_country":"Can","unit_type":"Infantry","unit_size":"Battalion","unit_name":"Regiment de la Chaudiere"}},{"type":"Feature","geometry":{"type":"Point","coordinates":[-0.41576,49.26403]},"properties":{"date":"1944-06-27","unit_country":"CAN","unit_type":"Engineer","unit_size":"Company","unit_name":"18th Field Company Royal Canadian Engineers"}},{"type":"Feature","geometry":{"type":"Point","coordinates":[-0.452,49.23998]},"properties":{"date":"1944-06-27","unit_country":"CAN","unit_type":"Engineer","unit_size":"Company","unit_name":"5th Field Company Royal Canadian Engineers"}},{"type":"Feature","geometry":{"type":"Point","coordinates":[-0.48662,49.25176]},"properties":{"date":"1944-06-27","unit_country":"CAN","unit_type":"Engineer","unit_size":"Company","unit_name":"16th Field Company Royal Canadian Engineers"}},{"type":"Feature","geometry":{"type":"Point","coordinates":[-0.45111,49.26222]},"properties":{"date":"1944-06-27","unit_country":"CAN","unit_type":"Infantry","unit_size":"Battalion","unit_name":"The Cameron Highlanders of Ottawa (Duke of Edinburgh's Own)"}},{"type":"Feature","geometry":{"type":"Point","coordinates":[-0.47317,49.18194]},"properties":{"date":"1944-06-27","unit_country":"CAN","unit_type":"Infantry","unit_size":"Company","unit_name":"The Cameron Highlanders of Ottawa (Duke of Edinburgh's Own)"}},{"type":"Feature","geometry":{"type":"Point","coordinates":[-0.44917,49.25306]},"properties":{"date":"1944-06-27","unit_country":"CAN","unit_type":"Infantry","unit_size":"Company","unit_name":"The Cameron Highlanders of Ottawa (Duke of Edinburgh's Own)"}},{"type":"Feature","geometry":{"type":"Point","coordinates":[-0.42008,49.24372]},"properties":{"date":"1944-06-27","unit_country":"CAN","unit_type":"Infantry","unit_size":"Company","unit_name":"The Cameron Highlanders of Ottawa (Duke of Edinburgh's Own)"}},{"type":"Feature","geometry":{"type":"Point","coordinates":[-0.54172,49.19389]},"properties":{"date":"1944-06-27","unit_country":"CAN","unit_type":"Infantry","unit_size":"Company","unit_name":"The Cameron Highlanders of Ottawa (Duke of Edinburgh's Own)"}},{"type":"Feature","geometry":{"type":"Point","coordinates":[-0.41158,49.26453]},"properties":{"date":"1944-06-27","unit_country":"CAN","unit_type":"Infantry","unit_size":"Company","unit_name":"The Cameron Highlanders of Ottawa (Duke of Edinburgh's Own)"}}]}