{"type":"FeatureCollection","features":[{"type":"Feature","geometry":{"type":"Point","coordinates":[-0.8335,49.27089]},"properties":{"date":"1944-07-25","unit_country":"GB","unit_type":"Infantry","unit_size":"Army Group","unit_name":"Twenty-First Army Group"}},{"type":"Feature","geometry":{"type":"Point","coordinates":[-0.23868,49.2357]},"properties":{"date":"1944-07-25","unit_country":"GB","unit_type":"Airborne","unit_size":"Division","unit_name":"6th Airborne Division"}},{"type":"Feature","geometry":{"type":"Point","coordinates":[-0.26197,49.20122]},"properties":{"date":"1944-07-25","unit_country":"GB","unit_type":"Infantry","unit_size":"Division","unit_name":"49th Infantry Division"}},{"type":"Feature","geometry":{"type":"Point","coordinates":[-0.25165,49.16954]},"properties":{"date":"1944-07-25","unit_country":"GB","unit_type":"Infantry","unit_size":"Division","unit_name":"51st Infantry Division"}},{"type":"Feature","geometry":{"type":"Point","coordinates":[-0.46804,49.2486]},"properties":{"date":"1944-07-25","unit_country":"CAN","unit_type":"Infantry","unit_size":"Corp","unit_name":"Second Corps"}},{"type":"Feature","geometry":{"type":"Point","coordinates":[-0.12739,49.16218]},"properties":{"date":"1944-07-25","unit_country":"GMN","unit_type":"Infantry","unit_size":"Division","unit_name":"16th Luftwaffe Division"}},{"type":"Feature","geometry":{"type":"Point","coordinates":[-0.30552,49.16551]},"properties":{"date":"1944-07-25","unit_country":"GB","unit_type":"Armoured","unit_size":"Division","unit_name":"7th Armoured Division"}},{"type":"Feature","geometry":{"type":"Point","coordinates":[-0.50415,49.13055]},"properties":{"date":"1944-07-25","unit_country":"GB","unit_type":"Infantry","unit_size":"Division","unit_name":"53rd Infantry Division"}},{"type":"Feature","geometry":{"type":"Point","coordinates":[-0.4338,49.13843]},"properties":{"date":"1944-07-25","unit_country":"GB","unit_type":"Infantry","unit_size":"Division","unit_name":"43rd Infantry Division"}},{"type":"Feature","geometry":{"type":"Point","coordinates":[-0.71587,49.15767]},"properties":{"date":"1944-07-25","unit_country":"GB","unit_type":"Infantry","unit_size":"Division","unit_name":"50th Infantry Division"}},{"type":"Feature","geometry":{"type":"Point","coordinates":[-1.00696,49.21391]},"properties":{"date":"1944-07-25","unit_country":"USA","unit_type":"Infantry","unit_size":"Corp","unit_name":"Nineteenth Corps"}},{"type":"Feature","geometry":{"type":"Point","coordinates":[-0.87398,49.17139]},"properties":{"date":"1944-07-25","unit_country":"USA","unit_type":"Infantry","unit_size":"Corp","unit_name":"Fifth Corps"}},{"type":"Feature","geometry":{"type":"Point","coordinates":[-1.1575,49.25998]},"properties":{"date":"1944-07-25","unit_country":"USA","unit_type":"Infantry","unit_size":"Corp","unit_name":"Seventh Corps"}},{"type":"Feature","geometry":{"type":"Point","coordinates":[-1.61966,49.46199]},"properties":{"date":"1944-07-25","unit_country":"USA","unit_type":"Infantry","unit_size":"Army","unit_name":"Third Army"}},{"type":"Feature","geometry":{"type":"Point","coordinates":[-1.04861,49.29788]},"properties":{"date":"1944-07-25","unit_country":"USA","unit_type":"Infantry","unit_size":"Army","unit_name":"First Army"}},{"type":"Feature","geometry":{"type":"Point","coordinates":[-0.8512,49.35783]},"properties":{"date":"1944-07-25","unit_country":"USA","unit_type":"Infantry","unit_size":"Division","unit_name":"28th Infantry Division"}},{"type":"Feature","geometry":{"type":"Point","coordinates":[-1.1548,49.1695]},"properties":{"date":"1944-07-25","unit_country":"USA","unit_type":"Infantry","unit_size":"Division","unit_name":"9th Infantry Division"}},{"type":"Feature","geometry":{"type":"Point","coordinates":[-1.1929,49.15981]},"properties":{"date":"1944-07-25","unit_country":"USA","unit_type":"Armoured","unit_size":"Division","unit_name":"3rd Armoured Division"}},{"type":"Feature","geometry":{"type":"Point","coordinates":[-0.172,49.27689]},"properties":{"date":"1944-07-25","unit_country":"GMN","unit_type":"Infantry","unit_size":"Division","unit_name":"711th Infantry Division"}},{"type":"Feature","geometry":{"type":"Point","coordinates":[-0.33219,49.09996]},"properties":{"date":"1944-07-25","unit_country":"GMN","unit_type":"Infantry","unit_size":"Division","unit_name":"272nd Infantry Division"}},{"type":"Feature","geometry":{"type":"Point","coordinates":[-0.14193,49.22177]},"properties":{"date":"1944-07-25","unit_country":"GMN","unit_type":"Infantry","unit_size":"Division","unit_name":"346th Infantry Division"}},{"type":"Feature","geometry":{"type":"Point","coordinates":[-0.21917,49.12803]},"properties":{"date":"1944-07-25","unit_country":"GMN","unit_type":"Armoured","unit_size":"Division","unit_name":"12th SS Panzer Division"}},{"type":"Feature","geometry":{"type":"Point","coordinates":[-0.51552,49.0932]},"properties":{"date":"1944-07-25","unit_country":"GMN","unit_type":"Armoured","unit_size":"Division","unit_name":"9th SS Panzer Division"}},{"type":"Feature","geometry":{"type":"Point","coordinates":[-0.13488,49.18743]},"properties":{"date":"1944-07-25","unit_country":"GMN","unit_type":"Armoured","unit_size":"Division","unit_name":"21st Panzer Division"}},{"type":"Feature","geometry":{"type":"Point","coordinates":[-1.16075,49.19142]},"properties":{"date":"1944-07-25","unit_country":"USA","unit_type":"Armoured","unit_size":"Division","unit_name":"2nd Armoured Division"}},{"type":"Feature","geometry":{"type":"Point","coordinates":[-0.42243,49.20961]},"properties":{"date":"1944-07-25","unit_country":"GB","unit_type":"Armoured","unit_size":"Division","unit_name":"11th Armoured Division"}},{"type":"Feature","geometry":{"type":"Point","coordinates":[-0.99581,49.30659]},"properties":{"date":"1944-07-25","unit_country":"USA","unit_type":"Infantry","unit_size":"Army Group","unit_name":"Twelfth Army Group"}},{"type":"Feature","geometry":{"type":"Point","coordinates":[-1.21709,49.12932]},"properties":{"date":"1944-07-25","unit_country":"GMN","unit_type":"Armoured","unit_size":"Division","unit_name":"Panzer Lehr Division"}},{"type":"Feature","geometry":{"type":"Point","coordinates":[-0.44975,49.09935]},"properties":{"date":"1944-07-25","unit_country":"GMN","unit_type":"Infantry","unit_size":"Division","unit_name":"271st Infantry Division"}},{"type":"Feature","geometry":{"type":"Point","coordinates":[-0.72487,49.09384]},"properties":{"date":"1944-07-25","unit_country":"GMN","unit_type":"Infantry","unit_size":"Division","unit_name":"276th Infantry Division"}},{"type":"Feature","geometry":{"type":"Point","coordinates":[-0.576,49.10561]},"properties":{"date":"1944-07-25","unit_country":"GMN","unit_type":"Infantry","unit_size":"Division","unit_name":"277th Infantry Division"}},{"type":"Feature","geometry":{"type":"Point","coordinates":[-1.04378,49.111]},"properties":{"date":"1944-07-25","unit_country":"GMN","unit_type":"Infantry","unit_size":"Division","unit_name":"266th Infantry Division"}},{"type":"Feature","geometry":{"type":"Point","coordinates":[-0.96248,49.08012]},"properties":{"date":"1944-07-25","unit_country":"GMN","unit_type":"Airborne","unit_size":"Division","unit_name":"3rd Fallschirmjäger Division"}},{"type":"Feature","geometry":{"type":"Point","coordinates":[-0.4894,49.06771]},"properties":{"date":"1944-07-25","unit_country":"GMN","unit_type":"Armoured","unit_size":"Division","unit_name":"10th SS Panzer Division"}},{"type":"Feature","geometry":{"type":"Point","coordinates":[-0.57139,49.1514]},"properties":{"date":"1944-07-25","unit_country":"GB","unit_type":"Infantry","unit_size":"Division","unit_name":"59th Infantry Division"}},{"type":"Feature","geometry":{"type":"Point","coordinates":[-1.06674,49.13261]},"properties":{"date":"1944-07-25","unit_country":"USA","unit_type":"Infantry","unit_size":"Division","unit_name":"35th Infantry Division"}},{"type":"Feature","geometry":{"type":"Point","coordinates":[-0.806,49.1009]},"properties":{"date":"1944-07-25","unit_country":"GB","unit_type":"Infantry","unit_size":"Division","unit_name":"15th Infantry Division"}},{"type":"Feature","geometry":{"type":"Point","coordinates":[-1.03323,49.17928]},"properties":{"date":"1944-07-25","unit_country":"USA","unit_type":"Infantry","unit_size":"Division","unit_name":"29th Infantry Division"}},{"type":"Feature","geometry":{"type":"Point","coordinates":[-0.96664,49.15256]},"properties":{"date":"1944-07-25","unit_country":"USA","unit_type":"Infantry","unit_size":"Division","unit_name":"2nd Infantry Division"}},{"type":"Feature","geometry":{"type":"Point","coordinates":[-0.538,49.22105]},"properties":{"date":"1944-07-25","unit_country":"GB","unit_type":"Infantry","unit_size":"Corp","unit_name":"Twelfth Corps"}},{"type":"Feature","geometry":{"type":"Point","coordinates":[-0.22911,49.03556]},"properties":{"date":"1944-07-25","unit_country":"GMN","unit_type":"Armoured","unit_size":"Corp","unit_name":"First SS Panzer Corps"}},{"type":"Feature","geometry":{"type":"Point","coordinates":[-0.48775,49.00451]},"properties":{"date":"1944-07-25","unit_country":"GMN","unit_type":"Armoured","unit_size":"Corp","unit_name":"Second SS Panzer Corps"}},{"type":"Feature","geometry":{"type":"Point","coordinates":[-0.83343,48.98893]},"properties":{"date":"1944-07-25","unit_country":"GMN","unit_type":"Armoured","unit_size":"Corp","unit_name":"Fourty-seventh Panzer Corps"}},{"type":"Feature","geometry":{"type":"Point","coordinates":[-1.47703,49.25111]},"properties":{"date":"1944-07-25","unit_country":"USA","unit_type":"Infantry","unit_size":"Division","unit_name":"8th Infantry Division"}},{"type":"Feature","geometry":{"type":"Point","coordinates":[-1.27673,49.23528]},"properties":{"date":"1944-07-25","unit_country":"USA","unit_type":"Infantry","unit_size":"Division","unit_name":"83rd Infantry Division"}},{"type":"Feature","geometry":{"type":"Point","coordinates":[-1.56388,49.32272]},"properties":{"date":"1944-07-25","unit_country":"USA","unit_type":"Infantry","unit_size":"Corp","unit_name":"Eighth Corps"}},{"type":"Feature","geometry":{"type":"Point","coordinates":[-1.35534,49.04338]},"properties":{"date":"1944-07-25","unit_country":"GMN","unit_type":"Infantry","unit_size":"Corp","unit_name":"Eighty-fourth Corps"}},{"type":"Feature","geometry":{"type":"Point","coordinates":[-0.93142,49.21765]},"properties":{"date":"1944-07-25","unit_country":"USA","unit_type":"Infantry","unit_size":"Division","unit_name":"5th Infantry Division"}},{"type":"Feature","geometry":{"type":"Point","coordinates":[-1.40702,49.25466]},"properties":{"date":"1944-07-25","unit_country":"USA","unit_type":"Infantry","unit_size":"Division","unit_name":"90th Infantry Division"}},{"type":"Feature","geometry":{"type":"Point","coordinates":[-1.13018,49.07497]},"properties":{"date":"1944-07-25","unit_country":"GMN","unit_type":"Infantry","unit_size":"Division","unit_name":"352nd Infantry Division"}},{"type":"Feature","geometry":{"type":"Point","coordinates":[-1.5785,49.2535]},"properties":{"date":"1944-07-25","unit_country":"USA","unit_type":"Infantry","unit_size":"Division","unit_name":"79th Infantry Division"}},{"type":"Feature","geometry":{"type":"Point","coordinates":[-1.30344,49.15415]},"properties":{"date":"1944-07-25","unit_country":"GMN","unit_type":"Infantry","unit_size":"Division","unit_name":"275th Infantry Division"}},{"type":"Feature","geometry":{"type":"Point","coordinates":[-0.2572,49.10342]},"properties":{"date":"1944-07-25","unit_country":"GMN","unit_type":"Armoured","unit_size":"Division","unit_name":"1st SS Panzer Division"}},{"type":"Feature","geometry":{"type":"Point","coordinates":[-1.54784,49.20481]},"properties":{"date":"1944-07-25","unit_country":"GMN","unit_type":"Infantry","unit_size":"Division","unit_name":"353rd Infantry Division"}},{"type":"Feature","geometry":{"type":"Point","coordinates":[-1.46731,49.15138]},"properties":{"date":"1944-07-25","unit_country":"GMN","unit_type":"Armoured","unit_size":"Division","unit_name":"2nd SS Panzer Division"}},{"type":"Feature","geometry":{"type":"Point","coordinates":[-0.53765,49.2952]},"properties":{"date":"1944-07-25","unit_country":"GB","unit_type":"Infantry","unit_size":"Army","unit_name":"Second Army"}},{"type":"Feature","geometry":{"type":"Point","coordinates":[-1.15183,49.15076]},"properties":{"date":"1944-07-25","unit_country":"USA","unit_type":"Infantry","unit_size":"Division","unit_name":"30th Infantry Division"}},{"type":"Feature","geometry":{"type":"Point","coordinates":[-1.13174,49.02322]},"properties":{"date":"1944-07-25","unit_country":"GMN","unit_type":"Airborne","unit_size":"Corp","unit_name":"Second Fallschirmjäger Corps"}},{"type":"Feature","geometry":{"type":"Point","coordinates":[-1.2246,49.16996]},"properties":{"date":"1944-07-25","unit_country":"USA","unit_type":"Infantry","unit_size":"Division","unit_name":"1st Infantry Division"}},{"type":"Feature","geometry":{"type":"Point","coordinates":[-0.87061,49.07032]},"properties":{"date":"1944-07-25","unit_country":"GMN","unit_type":"Armoured","unit_size":"Division","unit_name":"2nd Panzer Division"}},{"type":"Feature","geometry":{"type":"Point","coordinates":[-1.32965,49.19052]},"properties":{"date":"1944-07-25","unit_country":"GMN","unit_type":"Mechanized","unit_size":"Division","unit_name":"17th Panzer Grenadier Division"}},{"type":"Feature","geometry":{"type":"Point","coordinates":[-0.21256,49.19513]},"properties":{"date":"1944-07-25","unit_country":"GB","unit_type":"Infantry","unit_size":"Division","unit_name":"3rd Infantry Division"}},{"type":"Feature","geometry":{"type":"Point","coordinates":[-1.59324,49.21584]},"properties":{"date":"1944-07-25","unit_country":"GMN","unit_type":"Infantry","unit_size":"Division","unit_name":"243rd Infantry Division"}},{"type":"Feature","geometry":{"type":"Point","coordinates":[-1.48034,49.18765]},"properties":{"date":"1944-07-25","unit_country":"GMN","unit_type":"Infantry","unit_size":"Division","unit_name":"91st Infantry Division"}},{"type":"Feature","geometry":{"type":"Point","coordinates":[-1.48759,49.21669]},"properties":{"date":"1944-07-25","unit_country":"GMN","unit_type":"Infantry","unit_size":"Division","unit_name":"77th Infantry Division"}},{"type":"Feature","geometry":{"type":"Point","coordinates":[-1.3924,49.20497]},"properties":{"date":"1944-07-25","unit_country":"GMN","unit_type":"Infantry","unit_size":"Division","unit_name":"265th Infantry Division"}},{"type":"Feature","geometry":{"type":"Point","coordinates":[-1.19727,49.20057]},"properties":{"date":"1944-07-25","unit_country":"USA","unit_type":"Infantry","unit_size":"Division","unit_name":"4th Infantry Division"}},{"type":"Feature","geometry":{"type":"Point","coordinates":[-0.07107,49.10561]},"properties":{"date":"1944-07-25","unit_country":"GMN","unit_type":"Infantry","unit_size":"Corp","unit_name":"Eighty-sixth Corps"}},{"type":"Feature","geometry":{"type":"Point","coordinates":[-0.66326,49.25643]},"properties":{"date":"1944-07-25","unit_country":"GB","unit_type":"Infantry","unit_size":"Corp","unit_name":"Thirty Corps"}},{"type":"Feature","geometry":{"type":"Point","coordinates":[-0.4068,49.29582]},"properties":{"date":"1944-07-25","unit_country":"GB","unit_type":"Infantry","unit_size":"Corp","unit_name":"Eigth Corps"}},{"type":"Feature","geometry":{"type":"Point","coordinates":[-1.3259,49.26234]},"properties":{"date":"1944-07-25","unit_country":"USA","unit_type":"Armoured","unit_size":"Division","unit_name":"4th Armoured Division"}},{"type":"Feature","geometry":{"type":"Point","coordinates":[-0.49261,49.29745]},"properties":{"date":"1944-07-25","unit_country":"CAN","unit_type":"Infantry","unit_size":"Army","unit_name":"First Army"}},{"type":"Feature","geometry":{"type":"Point","coordinates":[-0.38521,49.29195]},"properties":{"date":"1944-07-25","unit_country":"GB","unit_type":"Infantry","unit_size":"Corp","unit_name":"First Corps"}},{"type":"Feature","geometry":{"type":"Point","coordinates":[-0.28768,49.14906]},"properties":{"date":"1944-07-25","unit_country":"CAN","unit_type":"Infantry","unit_size":"Brigade","unit_name":"8th Canadian Infantry Brigade"}},{"type":"Feature","geometry":{"type":"Point","coordinates":[-0.35603,49.18314]},"properties":{"date":"1944-07-25","unit_country":"CAN","unit_type":"Infantry","unit_size":"Brigade","unit_name":"9th Canadian Infantry Brigade"}},{"type":"Feature","geometry":{"type":"Point","coordinates":[-0.32576,49.14811]},"properties":{"date":"1944-07-25","unit_country":"CAN","unit_type":"Infantry","unit_size":"Brigade","unit_name":"7th Canadian Infantry Brigade"}},{"type":"Feature","geometry":{"type":"Point","coordinates":[-0.35237,49.16265]},"properties":{"date":"1944-07-25","unit_country":"CAN","unit_type":"Infantry","unit_size":"Brigade","unit_name":"4th Canadian Infantry Brigade"}},{"type":"Feature","geometry":{"type":"Point","coordinates":[-0.53873,49.2961]},"properties":{"date":"1944-07-25","unit_country":"CAN","unit_type":"Infantry","unit_size":"Brigade","unit_name":"10th Canadian Infantry Brigade"}},{"type":"Feature","geometry":{"type":"Point","coordinates":[-0.35948,49.16504]},"properties":{"date":"1944-07-25","unit_country":"CAN","unit_type":"Infantry","unit_size":"Brigade","unit_name":"6th Canadian Infantry Brigade"}},{"type":"Feature","geometry":{"type":"Point","coordinates":[-0.36611,49.16795]},"properties":{"date":"1944-07-25","unit_country":"CAN","unit_type":"Infantry","unit_size":"Division","unit_name":"2nd Canadian Infantry Division"}},{"type":"Feature","geometry":{"type":"Point","coordinates":[-0.2855,49.14863]},"properties":{"date":"1944-07-25","unit_country":"CAN","unit_type":"Infantry","unit_size":"Battalion","unit_name":"The Queen?s Own Rifles of Canadaÿ"}},{"type":"Feature","geometry":{"type":"Point","coordinates":[-0.29595,49.12244]},"properties":{"date":"1944-07-25","unit_country":"CAN","unit_type":"Infantry","unit_size":"Battalion","unit_name":"The North Nova Scotia Highlanders"}},{"type":"Feature","geometry":{"type":"Point","coordinates":[-0.29843,49.12255]},"properties":{"date":"1944-07-25","unit_country":"CAN","unit_type":"Infantry","unit_size":"Battalion","unit_name":"North Shore (New Brunswick) Regiment"}},{"type":"Feature","geometry":{"type":"Point","coordinates":[-0.33155,49.17421]},"properties":{"date":"1944-07-25","unit_country":"CAN","unit_type":"Infantry","unit_size":"Battalion","unit_name":"The Canadian Scottish Regiment"}},{"type":"Feature","geometry":{"type":"Point","coordinates":[-0.58569,49.30768]},"properties":{"date":"1944-07-25","unit_country":"CAN","unit_type":"Armoured","unit_size":"Division","unit_name":"4th Armoured Division"}},{"type":"Feature","geometry":{"type":"Point","coordinates":[-0.30148,49.13498]},"properties":{"date":"1944-07-25","unit_country":"CAN","unit_type":"Infantry","unit_size":"Battalion","unit_name":"The Regina Rifles"}},{"type":"Feature","geometry":{"type":"Point","coordinates":[-0.32077,49.16059]},"properties":{"date":"1944-07-25","unit_country":"CAN","unit_type":"Infantry","unit_size":"Battalion","unit_name":"The Royal Winnipeg Rifles"}},{"type":"Feature","geometry":{"type":"Point","coordinates":[-0.60065,49.32345]},"properties":{"date":"1944-07-25","unit_country":"CAN","unit_type":"Armoured","unit_size":"Battalion","unit_name":"21st Armoured Regiment (The Governor General?s Foot Guards)"}},{"type":"Feature","geometry":{"type":"Point","coordinates":[-0.32189,49.13873]},"properties":{"date":"1944-07-25","unit_country":"CAN","unit_type":"Infantry","unit_size":"Battalion","unit_name":"Highland Light Infantry of Canada"}},{"type":"Feature","geometry":{"type":"Point","coordinates":[-0.31503,49.13205]},"properties":{"date":"1944-07-25","unit_country":"CAN","unit_type":"Infantry","unit_size":"Battalion","unit_name":"Stormont, Dundas & Glengarry Highlanders"}},{"type":"Feature","geometry":{"type":"Point","coordinates":[-0.3473,49.16596]},"properties":{"date":"1944-07-25","unit_country":"CAN","unit_type":"Armoured","unit_size":"Battalion","unit_name":"6th Canadian Armoured Regiment (1st Hussars)ÿ"}},{"type":"Feature","geometry":{"type":"Point","coordinates":[-0.31243,49.14988]},"properties":{"date":"1944-07-25","unit_country":"CAN","unit_type":"Reconnaissance","unit_size":"Battalion","unit_name":"7th Reconnaissance Regiment (17th Duke of York's Royal Canadian Hussars)"}},{"type":"Feature","geometry":{"type":"Point","coordinates":[-0.33004,49.15498]},"properties":{"date":"1944-07-25","unit_country":"CAN","unit_type":"Artillery","unit_size":"Battalion","unit_name":"12th Field Regiment Royal Canadian Artillery"}},{"type":"Feature","geometry":{"type":"Point","coordinates":[-0.30222,49.15877]},"properties":{"date":"1944-07-25","unit_country":"CAN","unit_type":"Artillery","unit_size":"Battalion","unit_name":"13th Field Regiment Royal Canadian Artillery"}},{"type":"Feature","geometry":{"type":"Point","coordinates":[-0.31456,49.16681]},"properties":{"date":"1944-07-25","unit_country":"CAN","unit_type":"Artillery","unit_size":"Battalion","unit_name":"14th Field Regiment Royal Canadian Artillery"}},{"type":"Feature","geometry":{"type":"Point","coordinates":[-0.53699,49.28495]},"properties":{"date":"1944-07-25","unit_country":"CAN","unit_type":"Infantry","unit_size":"Battalion","unit_name":"The Lincoln & Welland Regiment"}},{"type":"Feature","geometry":{"type":"Point","coordinates":[-0.52964,49.30573]},"properties":{"date":"1944-07-25","unit_country":"CAN","unit_type":"Infantry","unit_size":"Battalion","unit_name":"The Algonquin Regiment"}},{"type":"Feature","geometry":{"type":"Point","coordinates":[-0.36197,49.14905]},"properties":{"date":"1944-07-25","unit_country":"CAN","unit_type":"Armoured","unit_size":"Battalion","unit_name":"27th Canadian Armoured Regiment (The Sherbrooke Fusiliers)ÿ"}},{"type":"Feature","geometry":{"type":"Point","coordinates":[-0.39119,49.13856]},"properties":{"date":"1944-07-25","unit_country":"CAN","unit_type":"Infantry","unit_size":"Brigade","unit_name":"5th Canadian Infantry Brigade"}},{"type":"Feature","geometry":{"type":"Point","coordinates":[-0.32727,49.15855]},"properties":{"date":"1944-07-25","unit_country":"CAN","unit_type":"Artillery","unit_size":"Battalion","unit_name":"19th Field Regiment Royal Canadian Artillery"}},{"type":"Feature","geometry":{"type":"Point","coordinates":[-0.34509,49.11747]},"properties":{"date":"1944-07-25","unit_country":"CAN","unit_type":"Infantry","unit_size":"Battalion","unit_name":"The Royal Regiment of Canada"}},{"type":"Feature","geometry":{"type":"Point","coordinates":[-0.33989,49.15603]},"properties":{"date":"1944-07-25","unit_country":"CAN","unit_type":"Armoured","unit_size":"Brigade","unit_name":"2nd Canadian Armoured Brigade"}},{"type":"Feature","geometry":{"type":"Point","coordinates":[-0.55105,49.31693]},"properties":{"date":"1944-07-25","unit_country":"CAN","unit_type":"Artillery","unit_size":"Battalion","unit_name":"15th Field Regiment, Royal Canadian Artillery"}},{"type":"Feature","geometry":{"type":"Point","coordinates":[-0.43075,49.32381]},"properties":{"date":"1944-07-25","unit_country":"CAN","unit_type":"Artillery","unit_size":"Battalion","unit_name":"23rd Field Regiment, Royal Canadian Artillery"}},{"type":"Feature","geometry":{"type":"Point","coordinates":[-0.39517,49.13982]},"properties":{"date":"1944-07-25","unit_country":"CAN","unit_type":"Infantry","unit_size":"Battalion","unit_name":"Essex Scottish Regiment"}},{"type":"Feature","geometry":{"type":"Point","coordinates":[-0.37301,49.10875]},"properties":{"date":"1944-07-25","unit_country":"CAN","unit_type":"Infantry","unit_size":"Battalion","unit_name":"The Calgary Highlanders"}},{"type":"Feature","geometry":{"type":"Point","coordinates":[-0.33085,49.11148]},"properties":{"date":"1944-07-25","unit_country":"CAN","unit_type":"Infantry","unit_size":"Battalion","unit_name":"Royal Hamilton Light Infantry"}},{"type":"Feature","geometry":{"type":"Point","coordinates":[-0.51964,49.3139]},"properties":{"date":"1944-07-25","unit_country":"CAN","unit_type":"Reconnaissance","unit_size":"Battalion","unit_name":"29th Reconnaissance Regiment (The South Alberta Regiment)"}},{"type":"Feature","geometry":{"type":"Point","coordinates":[-0.37443,49.11699]},"properties":{"date":"1944-07-25","unit_country":"CAN","unit_type":"Infantry","unit_size":"Battalion","unit_name":"Queen's Own Cameron Highlanders of Canada"}},{"type":"Feature","geometry":{"type":"Point","coordinates":[-0.37703,49.1205]},"properties":{"date":"1944-07-25","unit_country":"CAN","unit_type":"Infantry","unit_size":"Battalion","unit_name":"Le Regiment de Maisonneuve"}},{"type":"Feature","geometry":{"type":"Point","coordinates":[-0.39792,49.13843]},"properties":{"date":"1944-07-25","unit_country":"CAN","unit_type":"Infantry","unit_size":"Battalion","unit_name":"Les Fusiliers Mont-Royal"}},{"type":"Feature","geometry":{"type":"Point","coordinates":[-0.36872,49.11601]},"properties":{"date":"1944-07-25","unit_country":"CAN","unit_type":"Infantry","unit_size":"Battalion","unit_name":"The Black Watch (Royal Highalnders) of Canada"}},{"type":"Feature","geometry":{"type":"Point","coordinates":[-0.35336,49.12174]},"properties":{"date":"1944-07-25","unit_country":"CAN","unit_type":"Infantry","unit_size":"Battalion","unit_name":"The South Sasketchewan Regiment"}},{"type":"Feature","geometry":{"type":"Point","coordinates":[-0.20922,49.214]},"properties":{"date":"1944-07-25","unit_country":"CAN","unit_type":"Airborne","unit_size":"Battalion","unit_name":"1st Canadian Parachute Battalion"}},{"type":"Feature","geometry":{"type":"Point","coordinates":[-0.35409,49.16775]},"properties":{"date":"1944-07-25","unit_country":"CAN","unit_type":"Engineer","unit_size":"Company","unit_name":"6th Field Company, Royal Canadian Engineers"}},{"type":"Feature","geometry":{"type":"Point","coordinates":[-0.32231,49.18149]},"properties":{"date":"1944-07-25","unit_country":"CAN","unit_type":"Infantry","unit_size":"Division","unit_name":"3rd Canadian Infantry Division"}},{"type":"Feature","geometry":{"type":"Point","coordinates":[-0.30083,49.15058]},"properties":{"date":"1944-07-25","unit_country":"CAN","unit_type":"Armoured","unit_size":"Battalion","unit_name":"10th Canadian Armoured Regiment (The Fort Garry Horse)"}},{"type":"Feature","geometry":{"type":"Point","coordinates":[-0.35905,49.16315]},"properties":{"date":"1944-07-25","unit_country":"CAN","unit_type":"Artillery","unit_size":"Battalion","unit_name":"5th Field Regiment, Royal Canadian Artillery"}},{"type":"Feature","geometry":{"type":"Point","coordinates":[-0.36035,49.15614]},"properties":{"date":"1944-07-25","unit_country":"CAN","unit_type":"Artillery","unit_size":"Battalion","unit_name":"6th Field Regiment, Royal Canadian Artillery"}},{"type":"Feature","geometry":{"type":"Point","coordinates":[-0.38983,49.15292]},"properties":{"date":"1944-07-25","unit_country":"CAN","unit_type":"Artillery","unit_size":"Battalion","unit_name":"4th Field Regiment, Royal Canadian Artillery"}},{"type":"Feature","geometry":{"type":"Point","coordinates":[-0.44468,49.2006]},"properties":{"date":"1944-07-25","unit_country":"CAN","unit_type":"Reconnaissance","unit_size":"Battalion","unit_name":"8th Reconnaissance Regiment (14th Canadian Hussars)"}},{"type":"Feature","geometry":{"type":"Point","coordinates":[-0.30031,49.1333]},"properties":{"date":"1944-07-25","unit_country":"Can","unit_type":"Infantry","unit_size":"Battalion","unit_name":"Regiment de la Chaudiere"}},{"type":"Feature","geometry":{"type":"Point","coordinates":[-0.3429,49.16876]},"properties":{"date":"1944-07-25","unit_country":"CAN","unit_type":"Engineer","unit_size":"Company","unit_name":"18th Field Company Royal Canadian Engineers"}},{"type":"Feature","geometry":{"type":"Point","coordinates":[-0.34703,49.21392]},"properties":{"date":"1944-07-25","unit_country":"CAN","unit_type":"Engineer","unit_size":"Company","unit_name":"5th Field Company Royal Canadian Engineers"}},{"type":"Feature","geometry":{"type":"Point","coordinates":[-0.32978,49.17262]},"properties":{"date":"1944-07-25","unit_country":"CAN","unit_type":"Engineer","unit_size":"Company","unit_name":"16th Field Company Royal Canadian Engineers"}},{"type":"Feature","geometry":{"type":"Point","coordinates":[-0.31889,49.1825]},"properties":{"date":"1944-07-25","unit_country":"CAN","unit_type":"Infantry","unit_size":"Battalion","unit_name":"The Cameron Highlanders of Ottawa (Duke of Edinburgh's Own)"}},{"type":"Feature","geometry":{"type":"Point","coordinates":[-0.33111,49.17778]},"properties":{"date":"1944-07-25","unit_country":"CAN","unit_type":"Infantry","unit_size":"Company","unit_name":"The Cameron Highlanders of Ottawa (Duke of Edinburgh's Own)"}},{"type":"Feature","geometry":{"type":"Point","coordinates":[-0.29047,49.14825]},"properties":{"date":"1944-07-25","unit_country":"CAN","unit_type":"Infantry","unit_size":"Company","unit_name":"The Cameron Highlanders of Ottawa (Duke of Edinburgh's Own)"}},{"type":"Feature","geometry":{"type":"Point","coordinates":[-0.31558,49.17114]},"properties":{"date":"1944-07-25","unit_country":"CAN","unit_type":"Infantry","unit_size":"Company","unit_name":"The Cameron Highlanders of Ottawa (Duke of Edinburgh's Own)"}},{"type":"Feature","geometry":{"type":"Point","coordinates":[-0.26769,49.18075]},"properties":{"date":"1944-07-25","unit_country":"CAN","unit_type":"Infantry","unit_size":"Company","unit_name":"The Cameron Highlanders of Ottawa (Duke of Edinburgh's Own)"}}]}