{"type":"FeatureCollection","features":[{"type":"Feature","geometry":{"type":"Point","coordinates":[-0.8335,49.27089]},"properties":{"date":"1944-07-17","unit_country":"GB","unit_type":"Infantry","unit_size":"Army Group","unit_name":"Twenty-First Army Group"}},{"type":"Feature","geometry":{"type":"Point","coordinates":[-0.24961,49.26208]},"properties":{"date":"1944-07-17","unit_country":"GB","unit_type":"Airborne","unit_size":"Division","unit_name":"6th Airborne Division"}},{"type":"Feature","geometry":{"type":"Point","coordinates":[-0.58806,49.1829]},"properties":{"date":"1944-07-17","unit_country":"GB","unit_type":"Infantry","unit_size":"Division","unit_name":"49th Infantry Division"}},{"type":"Feature","geometry":{"type":"Point","coordinates":[-0.26496,49.23158]},"properties":{"date":"1944-07-17","unit_country":"GB","unit_type":"Infantry","unit_size":"Division","unit_name":"51st Infantry Division"}},{"type":"Feature","geometry":{"type":"Point","coordinates":[-0.46804,49.2486]},"properties":{"date":"1944-07-17","unit_country":"CAN","unit_type":"Infantry","unit_size":"Corp","unit_name":"Second Corps"}},{"type":"Feature","geometry":{"type":"Point","coordinates":[-0.21295,49.14352]},"properties":{"date":"1944-07-17","unit_country":"GMN","unit_type":"Infantry","unit_size":"Division","unit_name":"16th Luftwaffe Division"}},{"type":"Feature","geometry":{"type":"Point","coordinates":[-0.65705,49.21312]},"properties":{"date":"1944-07-17","unit_country":"GB","unit_type":"Armoured","unit_size":"Division","unit_name":"7th Armoured Division"}},{"type":"Feature","geometry":{"type":"Point","coordinates":[-0.51378,49.16024]},"properties":{"date":"1944-07-17","unit_country":"GB","unit_type":"Infantry","unit_size":"Division","unit_name":"53rd Infantry Division"}},{"type":"Feature","geometry":{"type":"Point","coordinates":[-0.4521,49.12879]},"properties":{"date":"1944-07-17","unit_country":"GB","unit_type":"Infantry","unit_size":"Division","unit_name":"43rd Infantry Division"}},{"type":"Feature","geometry":{"type":"Point","coordinates":[-0.73785,49.16909]},"properties":{"date":"1944-07-17","unit_country":"GB","unit_type":"Infantry","unit_size":"Division","unit_name":"50th Infantry Division"}},{"type":"Feature","geometry":{"type":"Point","coordinates":[-1.00339,49.30094]},"properties":{"date":"1944-07-17","unit_country":"USA","unit_type":"Infantry","unit_size":"Corp","unit_name":"Nineteenth Corps"}},{"type":"Feature","geometry":{"type":"Point","coordinates":[-0.92746,49.27338]},"properties":{"date":"1944-07-17","unit_country":"USA","unit_type":"Infantry","unit_size":"Corp","unit_name":"Fifth Corps"}},{"type":"Feature","geometry":{"type":"Point","coordinates":[-1.16748,49.24788]},"properties":{"date":"1944-07-17","unit_country":"USA","unit_type":"Infantry","unit_size":"Corp","unit_name":"Seventh Corps"}},{"type":"Feature","geometry":{"type":"Point","coordinates":[-1.02098,49.3219]},"properties":{"date":"1944-07-17","unit_country":"USA","unit_type":"Infantry","unit_size":"Army","unit_name":"First Army"}},{"type":"Feature","geometry":{"type":"Point","coordinates":[-0.48422,49.28161]},"properties":{"date":"1944-07-17","unit_country":"CAN","unit_type":"Infantry","unit_size":"Army","unit_name":"First Army"}},{"type":"Feature","geometry":{"type":"Point","coordinates":[-1.1769,49.20958]},"properties":{"date":"1944-07-17","unit_country":"USA","unit_type":"Infantry","unit_size":"Division","unit_name":"9th Infantry Division"}},{"type":"Feature","geometry":{"type":"Point","coordinates":[-1.1986,49.24926]},"properties":{"date":"1944-07-17","unit_country":"USA","unit_type":"Armoured","unit_size":"Division","unit_name":"3rd Armoured Division"}},{"type":"Feature","geometry":{"type":"Point","coordinates":[-0.17104,49.23438]},"properties":{"date":"1944-07-17","unit_country":"GMN","unit_type":"Infantry","unit_size":"Division","unit_name":"711th Infantry Division"}},{"type":"Feature","geometry":{"type":"Point","coordinates":[-0.52756,49.09405]},"properties":{"date":"1944-07-17","unit_country":"GMN","unit_type":"Infantry","unit_size":"Division","unit_name":"272nd Infantry Division"}},{"type":"Feature","geometry":{"type":"Point","coordinates":[-0.1676,49.17766]},"properties":{"date":"1944-07-17","unit_country":"GMN","unit_type":"Infantry","unit_size":"Division","unit_name":"346th Infantry Division"}},{"type":"Feature","geometry":{"type":"Point","coordinates":[-0.34253,49.08882]},"properties":{"date":"1944-07-17","unit_country":"GMN","unit_type":"Armoured","unit_size":"Division","unit_name":"12th SS Panzer Division"}},{"type":"Feature","geometry":{"type":"Point","coordinates":[-0.48985,49.07032]},"properties":{"date":"1944-07-17","unit_country":"GMN","unit_type":"Armoured","unit_size":"Division","unit_name":"9th SS Panzer Division"}},{"type":"Feature","geometry":{"type":"Point","coordinates":[-0.31552,49.1387]},"properties":{"date":"1944-07-17","unit_country":"GMN","unit_type":"Armoured","unit_size":"Division","unit_name":"21st Panzer Division"}},{"type":"Feature","geometry":{"type":"Point","coordinates":[-0.81849,49.15319]},"properties":{"date":"1944-07-17","unit_country":"USA","unit_type":"Armoured","unit_size":"Division","unit_name":"2nd Armoured Division"}},{"type":"Feature","geometry":{"type":"Point","coordinates":[-0.57288,49.24679]},"properties":{"date":"1944-07-17","unit_country":"GB","unit_type":"Armoured","unit_size":"Division","unit_name":"11th Armoured Division"}},{"type":"Feature","geometry":{"type":"Point","coordinates":[-1.20426,49.14332]},"properties":{"date":"1944-07-17","unit_country":"GMN","unit_type":"Armoured","unit_size":"Division","unit_name":"Panzer Lehr Division"}},{"type":"Feature","geometry":{"type":"Point","coordinates":[-0.65975,49.13787]},"properties":{"date":"1944-07-17","unit_country":"GMN","unit_type":"Infantry","unit_size":"Division","unit_name":"276th Infantry Division"}},{"type":"Feature","geometry":{"type":"Point","coordinates":[-0.59561,49.11573]},"properties":{"date":"1944-07-17","unit_country":"GMN","unit_type":"Infantry","unit_size":"Division","unit_name":"277th Infantry Division"}},{"type":"Feature","geometry":{"type":"Point","coordinates":[-1.31057,49.20558]},"properties":{"date":"1944-07-17","unit_country":"GMN","unit_type":"Infantry","unit_size":"Division","unit_name":"266th Infantry Division"}},{"type":"Feature","geometry":{"type":"Point","coordinates":[-0.91257,49.06143]},"properties":{"date":"1944-07-17","unit_country":"GMN","unit_type":"Airborne","unit_size":"Division","unit_name":"3rd Fallschirmjäger Division"}},{"type":"Feature","geometry":{"type":"Point","coordinates":[-0.32255,48.99993]},"properties":{"date":"1944-07-17","unit_country":"GMN","unit_type":"Armoured","unit_size":"Division","unit_name":"10th SS Panzer Division"}},{"type":"Feature","geometry":{"type":"Point","coordinates":[-0.57876,49.21929]},"properties":{"date":"1944-07-17","unit_country":"GB","unit_type":"Infantry","unit_size":"Division","unit_name":"59th Infantry Division"}},{"type":"Feature","geometry":{"type":"Point","coordinates":[-1.07684,49.18989]},"properties":{"date":"1944-07-17","unit_country":"USA","unit_type":"Infantry","unit_size":"Division","unit_name":"35th Infantry Division"}},{"type":"Feature","geometry":{"type":"Point","coordinates":[-0.507,49.1338]},"properties":{"date":"1944-07-17","unit_country":"GB","unit_type":"Infantry","unit_size":"Division","unit_name":"15th Infantry Division"}},{"type":"Feature","geometry":{"type":"Point","coordinates":[-1.02883,49.15768]},"properties":{"date":"1944-07-17","unit_country":"USA","unit_type":"Infantry","unit_size":"Division","unit_name":"29th Infantry Division"}},{"type":"Feature","geometry":{"type":"Point","coordinates":[-0.95155,49.15489]},"properties":{"date":"1944-07-17","unit_country":"USA","unit_type":"Infantry","unit_size":"Division","unit_name":"2nd Infantry Division"}},{"type":"Feature","geometry":{"type":"Point","coordinates":[-0.538,49.22105]},"properties":{"date":"1944-07-17","unit_country":"GB","unit_type":"Infantry","unit_size":"Corp","unit_name":"Twelfth Corps"}},{"type":"Feature","geometry":{"type":"Point","coordinates":[-0.28472,48.94479]},"properties":{"date":"1944-07-17","unit_country":"GMN","unit_type":"Armoured","unit_size":"Corp","unit_name":"First SS Panzer Corps"}},{"type":"Feature","geometry":{"type":"Point","coordinates":[-0.40076,48.93336]},"properties":{"date":"1944-07-17","unit_country":"GMN","unit_type":"Armoured","unit_size":"Corp","unit_name":"Second SS Panzer Corps"}},{"type":"Feature","geometry":{"type":"Point","coordinates":[-1.50698,49.29903]},"properties":{"date":"1944-07-17","unit_country":"USA","unit_type":"Infantry","unit_size":"Division","unit_name":"8th Infantry Division"}},{"type":"Feature","geometry":{"type":"Point","coordinates":[-1.28636,49.26119]},"properties":{"date":"1944-07-17","unit_country":"USA","unit_type":"Infantry","unit_size":"Division","unit_name":"83rd Infantry Division"}},{"type":"Feature","geometry":{"type":"Point","coordinates":[-1.49757,49.43398]},"properties":{"date":"1944-07-17","unit_country":"USA","unit_type":"Infantry","unit_size":"Corp","unit_name":"Eighth Corps"}},{"type":"Feature","geometry":{"type":"Point","coordinates":[-1.3418,49.12884]},"properties":{"date":"1944-07-17","unit_country":"GMN","unit_type":"Infantry","unit_size":"Corp","unit_name":"Eighty-fourth Corps"}},{"type":"Feature","geometry":{"type":"Point","coordinates":[-0.84372,49.11508]},"properties":{"date":"1944-07-17","unit_country":"USA","unit_type":"Infantry","unit_size":"Division","unit_name":"1st Infantry Division"}},{"type":"Feature","geometry":{"type":"Point","coordinates":[-1.417,49.30769]},"properties":{"date":"1944-07-17","unit_country":"USA","unit_type":"Infantry","unit_size":"Division","unit_name":"90th Infantry Division"}},{"type":"Feature","geometry":{"type":"Point","coordinates":[-1.05459,49.09458]},"properties":{"date":"1944-07-17","unit_country":"GMN","unit_type":"Infantry","unit_size":"Division","unit_name":"352nd Infantry Division"}},{"type":"Feature","geometry":{"type":"Point","coordinates":[-1.61416,49.30234]},"properties":{"date":"1944-07-17","unit_country":"USA","unit_type":"Infantry","unit_size":"Division","unit_name":"79th Infantry Division"}},{"type":"Feature","geometry":{"type":"Point","coordinates":[-0.4048,49.10264]},"properties":{"date":"1944-07-17","unit_country":"GMN","unit_type":"Armoured","unit_size":"Division","unit_name":"1st SS Panzer Division"}},{"type":"Feature","geometry":{"type":"Point","coordinates":[-1.58991,49.21785]},"properties":{"date":"1944-07-17","unit_country":"GMN","unit_type":"Infantry","unit_size":"Division","unit_name":"353rd Infantry Division"}},{"type":"Feature","geometry":{"type":"Point","coordinates":[-1.43594,49.17687]},"properties":{"date":"1944-07-17","unit_country":"GMN","unit_type":"Armoured","unit_size":"Division","unit_name":"2nd SS Panzer Division"}},{"type":"Feature","geometry":{"type":"Point","coordinates":[-0.53765,49.2952]},"properties":{"date":"1944-07-17","unit_country":"GB","unit_type":"Infantry","unit_size":"Army","unit_name":"Second Army"}},{"type":"Feature","geometry":{"type":"Point","coordinates":[-1.14042,49.19372]},"properties":{"date":"1944-07-17","unit_country":"USA","unit_type":"Infantry","unit_size":"Division","unit_name":"30th Infantry Division"}},{"type":"Feature","geometry":{"type":"Point","coordinates":[-1.11392,48.98205]},"properties":{"date":"1944-07-17","unit_country":"GMN","unit_type":"Airborne","unit_size":"Corp","unit_name":"Second Fallschirmjäger Corps"}},{"type":"Feature","geometry":{"type":"Point","coordinates":[-0.99643,49.29319]},"properties":{"date":"1944-07-17","unit_country":"USA","unit_type":"Infantry","unit_size":"Division","unit_name":"1st Infantry Division"}},{"type":"Feature","geometry":{"type":"Point","coordinates":[-0.7658,49.06658]},"properties":{"date":"1944-07-17","unit_country":"GMN","unit_type":"Armoured","unit_size":"Division","unit_name":"2nd Panzer Division"}},{"type":"Feature","geometry":{"type":"Point","coordinates":[-1.31527,49.1819]},"properties":{"date":"1944-07-17","unit_country":"GMN","unit_type":"Mechanized","unit_size":"Division","unit_name":"17th Panzer Grenadier Division"}},{"type":"Feature","geometry":{"type":"Point","coordinates":[-0.3535,49.20934]},"properties":{"date":"1944-07-17","unit_country":"GB","unit_type":"Infantry","unit_size":"Division","unit_name":"3rd Infantry Division"}},{"type":"Feature","geometry":{"type":"Point","coordinates":[-1.63388,49.25029]},"properties":{"date":"1944-07-17","unit_country":"GMN","unit_type":"Infantry","unit_size":"Division","unit_name":"243rd Infantry Division"}},{"type":"Feature","geometry":{"type":"Point","coordinates":[-1.55877,49.23516]},"properties":{"date":"1944-07-17","unit_country":"GMN","unit_type":"Infantry","unit_size":"Division","unit_name":"91st Infantry Division"}},{"type":"Feature","geometry":{"type":"Point","coordinates":[-1.4826,49.23206]},"properties":{"date":"1944-07-17","unit_country":"GMN","unit_type":"Infantry","unit_size":"Division","unit_name":"77th Infantry Division"}},{"type":"Feature","geometry":{"type":"Point","coordinates":[-1.42662,49.23989]},"properties":{"date":"1944-07-17","unit_country":"GMN","unit_type":"Infantry","unit_size":"Division","unit_name":"265th Infantry Division"}},{"type":"Feature","geometry":{"type":"Point","coordinates":[-1.29852,49.29087]},"properties":{"date":"1944-07-17","unit_country":"USA","unit_type":"Infantry","unit_size":"Division","unit_name":"4th Infantry Division"}},{"type":"Feature","geometry":{"type":"Point","coordinates":[-0.63117,49.25488]},"properties":{"date":"1944-07-17","unit_country":"GB","unit_type":"Infantry","unit_size":"Corp","unit_name":"Thirty Corps"}},{"type":"Feature","geometry":{"type":"Point","coordinates":[-0.42891,49.28791]},"properties":{"date":"1944-07-17","unit_country":"GB","unit_type":"Infantry","unit_size":"Corp","unit_name":"Eigth Corps"}},{"type":"Feature","geometry":{"type":"Point","coordinates":[-1.35014,49.27164]},"properties":{"date":"1944-07-17","unit_country":"USA","unit_type":"Armoured","unit_size":"Division","unit_name":"4th Armoured Division"}},{"type":"Feature","geometry":{"type":"Point","coordinates":[-0.35086,49.29117]},"properties":{"date":"1944-07-17","unit_country":"GB","unit_type":"Infantry","unit_size":"Corp","unit_name":"First Corps"}},{"type":"Feature","geometry":{"type":"Point","coordinates":[-0.63111,49.33391]},"properties":{"date":"1944-07-17","unit_country":"GB","unit_type":"Armoured","unit_size":"Division","unit_name":"Guards Division"}},{"type":"Feature","geometry":{"type":"Point","coordinates":[-1.46398,49.10315]},"properties":{"date":"1944-07-17","unit_country":"GMN","unit_type":"Infantry","unit_size":"Division","unit_name":"343rd Infantry Division"}},{"type":"Feature","geometry":{"type":"Point","coordinates":[-0.61892,48.84977]},"properties":{"date":"1944-07-17","unit_country":"GMN","unit_type":"Armoured","unit_size":"Corp","unit_name":"Fourty-seventh Panzer Corps"}},{"type":"Feature","geometry":{"type":"Point","coordinates":[-1.34962,49.21606]},"properties":{"date":"1944-07-17","unit_country":"GMN","unit_type":"Airborne","unit_size":"Regiment","unit_name":"6 Regiment"}},{"type":"Feature","geometry":{"type":"Point","coordinates":[-0.38504,49.23388]},"properties":{"date":"1944-07-17","unit_country":"CAN","unit_type":"Infantry","unit_size":"Brigade","unit_name":"8th Canadian Infantry Brigade"}},{"type":"Feature","geometry":{"type":"Point","coordinates":[-0.39146,49.25351]},"properties":{"date":"1944-07-17","unit_country":"CAN","unit_type":"Infantry","unit_size":"Brigade","unit_name":"9th Canadian Infantry Brigade"}},{"type":"Feature","geometry":{"type":"Point","coordinates":[-0.38462,49.20915]},"properties":{"date":"1944-07-17","unit_country":"CAN","unit_type":"Infantry","unit_size":"Brigade","unit_name":"7th Canadian Infantry Brigade"}},{"type":"Feature","geometry":{"type":"Point","coordinates":[-0.44669,49.15659]},"properties":{"date":"1944-07-17","unit_country":"CAN","unit_type":"Infantry","unit_size":"Brigade","unit_name":"4th Canadian Infantry Brigade"}},{"type":"Feature","geometry":{"type":"Point","coordinates":[-0.45036,49.17487]},"properties":{"date":"1944-07-17","unit_country":"CAN","unit_type":"Infantry","unit_size":"Brigade","unit_name":"6th Canadian Infantry Brigade"}},{"type":"Feature","geometry":{"type":"Point","coordinates":[-0.47116,49.21696]},"properties":{"date":"1944-07-17","unit_country":"CAN","unit_type":"Infantry","unit_size":"Division","unit_name":"2nd Canadian Infantry Division"}},{"type":"Feature","geometry":{"type":"Point","coordinates":[-0.38382,49.2249]},"properties":{"date":"1944-07-17","unit_country":"CAN","unit_type":"Infantry","unit_size":"Battalion","unit_name":"The Queen?s Own Rifles of Canadaÿ"}},{"type":"Feature","geometry":{"type":"Point","coordinates":[-0.41677,49.22731]},"properties":{"date":"1944-07-17","unit_country":"CAN","unit_type":"Infantry","unit_size":"Battalion","unit_name":"The North Nova Scotia Highlanders"}},{"type":"Feature","geometry":{"type":"Point","coordinates":[-0.38219,49.23411]},"properties":{"date":"1944-07-17","unit_country":"CAN","unit_type":"Infantry","unit_size":"Battalion","unit_name":"North Shore (New Brunswick) Regiment"}},{"type":"Feature","geometry":{"type":"Point","coordinates":[-0.38422,49.20889]},"properties":{"date":"1944-07-17","unit_country":"CAN","unit_type":"Infantry","unit_size":"Battalion","unit_name":"The Canadian Scottish Regiment"}},{"type":"Feature","geometry":{"type":"Point","coordinates":[-0.36824,49.22101]},"properties":{"date":"1944-07-17","unit_country":"CAN","unit_type":"Infantry","unit_size":"Battalion","unit_name":"The Regina Rifles"}},{"type":"Feature","geometry":{"type":"Point","coordinates":[-0.35736,49.23678]},"properties":{"date":"1944-07-17","unit_country":"CAN","unit_type":"Infantry","unit_size":"Battalion","unit_name":"The Royal Winnipeg Rifles"}},{"type":"Feature","geometry":{"type":"Point","coordinates":[-0.31468,49.21203]},"properties":{"date":"1944-07-17","unit_country":"CAN","unit_type":"Infantry","unit_size":"Battalion","unit_name":"Highland Light Infantry of Canada"}},{"type":"Feature","geometry":{"type":"Point","coordinates":[-0.39247,49.24958]},"properties":{"date":"1944-07-17","unit_country":"CAN","unit_type":"Infantry","unit_size":"Battalion","unit_name":"Stormont, Dundas & Glengarry Highlanders"}},{"type":"Feature","geometry":{"type":"Point","coordinates":[-0.28061,49.23722]},"properties":{"date":"1944-07-17","unit_country":"CAN","unit_type":"Armoured","unit_size":"Battalion","unit_name":"6th Canadian Armoured Regiment (1st Hussars)ÿ"}},{"type":"Feature","geometry":{"type":"Point","coordinates":[-0.37346,49.19321]},"properties":{"date":"1944-07-17","unit_country":"CAN","unit_type":"Reconnaissance","unit_size":"Battalion","unit_name":"7th Reconnaissance Regiment (17th Duke of York's Royal Canadian Hussars)"}},{"type":"Feature","geometry":{"type":"Point","coordinates":[-0.34784,49.21799]},"properties":{"date":"1944-07-17","unit_country":"CAN","unit_type":"Artillery","unit_size":"Battalion","unit_name":"12th Field Regiment Royal Canadian Artillery"}},{"type":"Feature","geometry":{"type":"Point","coordinates":[-0.34815,49.22845]},"properties":{"date":"1944-07-17","unit_country":"CAN","unit_type":"Artillery","unit_size":"Battalion","unit_name":"13th Field Regiment Royal Canadian Artillery"}},{"type":"Feature","geometry":{"type":"Point","coordinates":[-0.34284,49.22234]},"properties":{"date":"1944-07-17","unit_country":"CAN","unit_type":"Artillery","unit_size":"Battalion","unit_name":"14th Field Regiment Royal Canadian Artillery"}},{"type":"Feature","geometry":{"type":"Point","coordinates":[-0.34813,49.26793]},"properties":{"date":"1944-07-17","unit_country":"CAN","unit_type":"Armoured","unit_size":"Battalion","unit_name":"27th Canadian Armoured Regiment (The Sherbrooke Fusiliers)ÿ"}},{"type":"Feature","geometry":{"type":"Point","coordinates":[-0.43248,49.19054]},"properties":{"date":"1944-07-17","unit_country":"CAN","unit_type":"Infantry","unit_size":"Brigade","unit_name":"5th Canadian Infantry Brigade"}},{"type":"Feature","geometry":{"type":"Point","coordinates":[-0.37691,49.23091]},"properties":{"date":"1944-07-17","unit_country":"CAN","unit_type":"Artillery","unit_size":"Battalion","unit_name":"19th Field Regiment Royal Canadian Artillery"}},{"type":"Feature","geometry":{"type":"Point","coordinates":[-0.43495,49.15733]},"properties":{"date":"1944-07-17","unit_country":"CAN","unit_type":"Infantry","unit_size":"Battalion","unit_name":"The Royal Regiment of Canada"}},{"type":"Feature","geometry":{"type":"Point","coordinates":[-0.38223,49.20786]},"properties":{"date":"1944-07-17","unit_country":"CAN","unit_type":"Armoured","unit_size":"Brigade","unit_name":"2nd Canadian Armoured Brigade"}},{"type":"Feature","geometry":{"type":"Point","coordinates":[-0.43239,49.1438]},"properties":{"date":"1944-07-17","unit_country":"CAN","unit_type":"Infantry","unit_size":"Battalion","unit_name":"Essex Scottish Regiment"}},{"type":"Feature","geometry":{"type":"Point","coordinates":[-0.41424,49.20259]},"properties":{"date":"1944-07-17","unit_country":"CAN","unit_type":"Infantry","unit_size":"Battalion","unit_name":"The Calgary Highlanders"}},{"type":"Feature","geometry":{"type":"Point","coordinates":[-0.42618,49.15599]},"properties":{"date":"1944-07-17","unit_country":"CAN","unit_type":"Infantry","unit_size":"Battalion","unit_name":"Royal Hamilton Light Infantry"}},{"type":"Feature","geometry":{"type":"Point","coordinates":[-0.44521,49.18919]},"properties":{"date":"1944-07-17","unit_country":"CAN","unit_type":"Infantry","unit_size":"Battalion","unit_name":"Queen's Own Cameron Highlanders of Canada"}},{"type":"Feature","geometry":{"type":"Point","coordinates":[-0.4742,49.21074]},"properties":{"date":"1944-07-17","unit_country":"CAN","unit_type":"Infantry","unit_size":"Battalion","unit_name":"Le Regiment de Maisonneuve"}},{"type":"Feature","geometry":{"type":"Point","coordinates":[-0.44766,49.16873]},"properties":{"date":"1944-07-17","unit_country":"CAN","unit_type":"Infantry","unit_size":"Battalion","unit_name":"Les Fusiliers Mont-Royal"}},{"type":"Feature","geometry":{"type":"Point","coordinates":[-0.43631,49.19804]},"properties":{"date":"1944-07-17","unit_country":"CAN","unit_type":"Infantry","unit_size":"Battalion","unit_name":"The Black Watch (Royal Highalnders) of Canada"}},{"type":"Feature","geometry":{"type":"Point","coordinates":[-0.47927,49.18066]},"properties":{"date":"1944-07-17","unit_country":"CAN","unit_type":"Infantry","unit_size":"Battalion","unit_name":"The South Sasketchewan Regiment"}},{"type":"Feature","geometry":{"type":"Point","coordinates":[-0.2526,49.25684]},"properties":{"date":"1944-07-17","unit_country":"CAN","unit_type":"Airborne","unit_size":"Battalion","unit_name":"1st Canadian Parachute Battalion"}},{"type":"Feature","geometry":{"type":"Point","coordinates":[-0.38831,49.23642]},"properties":{"date":"1944-07-17","unit_country":"CAN","unit_type":"Engineer","unit_size":"Company","unit_name":"6th Field Company, Royal Canadian Engineers"}},{"type":"Feature","geometry":{"type":"Point","coordinates":[-0.48146,49.20547]},"properties":{"date":"1944-07-17","unit_country":"CAN","unit_type":"Infantry","unit_size":"Division","unit_name":"3rd Canadian Infantry Division"}},{"type":"Feature","geometry":{"type":"Point","coordinates":[-0.43773,49.15198]},"properties":{"date":"1944-07-17","unit_country":"CAN","unit_type":"Armoured","unit_size":"Battalion","unit_name":"10th Canadian Armoured Regiment (The Fort Garry Horse)"}},{"type":"Feature","geometry":{"type":"Point","coordinates":[-0.47988,49.17386]},"properties":{"date":"1944-07-17","unit_country":"CAN","unit_type":"Artillery","unit_size":"Battalion","unit_name":"5th Field Regiment, Royal Canadian Artillery"}},{"type":"Feature","geometry":{"type":"Point","coordinates":[-0.47026,49.17292]},"properties":{"date":"1944-07-17","unit_country":"CAN","unit_type":"Artillery","unit_size":"Battalion","unit_name":"6th Field Regiment, Royal Canadian Artillery"}},{"type":"Feature","geometry":{"type":"Point","coordinates":[-0.47808,49.16227]},"properties":{"date":"1944-07-17","unit_country":"CAN","unit_type":"Artillery","unit_size":"Battalion","unit_name":"4th Field Regiment, Royal Canadian Artillery"}},{"type":"Feature","geometry":{"type":"Point","coordinates":[-0.40689,49.16222]},"properties":{"date":"1944-07-17","unit_country":"CAN","unit_type":"Reconnaissance","unit_size":"Battalion","unit_name":"8th Reconnaissance Regiment (14th Canadian Hussars)"}},{"type":"Feature","geometry":{"type":"Point","coordinates":[-0.26502,49.23985]},"properties":{"date":"1944-07-17","unit_country":"Can","unit_type":"Infantry","unit_size":"Battalion","unit_name":"Regiment de la Chaudiere"}},{"type":"Feature","geometry":{"type":"Point","coordinates":[-0.39155,49.22805]},"properties":{"date":"1944-07-17","unit_country":"CAN","unit_type":"Engineer","unit_size":"Company","unit_name":"18th Field Company Royal Canadian Engineers"}},{"type":"Feature","geometry":{"type":"Point","coordinates":[-0.34703,49.21392]},"properties":{"date":"1944-07-17","unit_country":"CAN","unit_type":"Engineer","unit_size":"Company","unit_name":"5th Field Company Royal Canadian Engineers"}},{"type":"Feature","geometry":{"type":"Point","coordinates":[-0.3914,49.22829]},"properties":{"date":"1944-07-17","unit_country":"CAN","unit_type":"Engineer","unit_size":"Company","unit_name":"16th Field Company Royal Canadian Engineers"}},{"type":"Feature","geometry":{"type":"Point","coordinates":[-0.38361,49.23139]},"properties":{"date":"1944-07-17","unit_country":"CAN","unit_type":"Infantry","unit_size":"Battalion","unit_name":"The Cameron Highlanders of Ottawa (Duke of Edinburgh's Own)"}},{"type":"Feature","geometry":{"type":"Point","coordinates":[-0.38917,49.20861]},"properties":{"date":"1944-07-17","unit_country":"CAN","unit_type":"Infantry","unit_size":"Company","unit_name":"The Cameron Highlanders of Ottawa (Duke of Edinburgh's Own)"}},{"type":"Feature","geometry":{"type":"Point","coordinates":[-0.38917,49.20861]},"properties":{"date":"1944-07-17","unit_country":"CAN","unit_type":"Infantry","unit_size":"Company","unit_name":"The Cameron Highlanders of Ottawa (Duke of Edinburgh's Own)"}},{"type":"Feature","geometry":{"type":"Point","coordinates":[-0.38917,49.20861]},"properties":{"date":"1944-07-17","unit_country":"CAN","unit_type":"Infantry","unit_size":"Company","unit_name":"The Cameron Highlanders of Ottawa (Duke of Edinburgh's Own)"}},{"type":"Feature","geometry":{"type":"Point","coordinates":[-0.38592,49.23225]},"properties":{"date":"1944-07-17","unit_country":"CAN","unit_type":"Infantry","unit_size":"Company","unit_name":"The Cameron Highlanders of Ottawa (Duke of Edinburgh's Own)"}}]}