{"type":"FeatureCollection","features":[{"type":"Feature","geometry":{"type":"Point","coordinates":[-0.8335,49.27089]},"properties":{"date":"1944-07-07","unit_country":"GB","unit_type":"Infantry","unit_size":"Army Group","unit_name":"Twenty-First Army Group"}},{"type":"Feature","geometry":{"type":"Point","coordinates":[-0.24961,49.26208]},"properties":{"date":"1944-07-07","unit_country":"GB","unit_type":"Airborne","unit_size":"Division","unit_name":"6th Airborne Division"}},{"type":"Feature","geometry":{"type":"Point","coordinates":[-0.58652,49.16705]},"properties":{"date":"1944-07-07","unit_country":"GB","unit_type":"Infantry","unit_size":"Division","unit_name":"49th Infantry Division"}},{"type":"Feature","geometry":{"type":"Point","coordinates":[-0.27827,49.23298]},"properties":{"date":"1944-07-07","unit_country":"GB","unit_type":"Infantry","unit_size":"Division","unit_name":"51st Infantry Division"}},{"type":"Feature","geometry":{"type":"Point","coordinates":[-0.27867,49.1771]},"properties":{"date":"1944-07-07","unit_country":"GMN","unit_type":"Infantry","unit_size":"Division","unit_name":"16th Luftwaffe Division"}},{"type":"Feature","geometry":{"type":"Point","coordinates":[-0.67404,49.22057]},"properties":{"date":"1944-07-07","unit_country":"GB","unit_type":"Armoured","unit_size":"Division","unit_name":"7th Armoured Division"}},{"type":"Feature","geometry":{"type":"Point","coordinates":[-0.51164,49.15231]},"properties":{"date":"1944-07-07","unit_country":"GB","unit_type":"Infantry","unit_size":"Division","unit_name":"53rd Infantry Division"}},{"type":"Feature","geometry":{"type":"Point","coordinates":[-0.48407,49.1734]},"properties":{"date":"1944-07-07","unit_country":"GB","unit_type":"Infantry","unit_size":"Division","unit_name":"43rd Infantry Division"}},{"type":"Feature","geometry":{"type":"Point","coordinates":[-0.67832,49.18175]},"properties":{"date":"1944-07-07","unit_country":"GB","unit_type":"Infantry","unit_size":"Division","unit_name":"50th Infantry Division"}},{"type":"Feature","geometry":{"type":"Point","coordinates":[-1.00339,49.30094]},"properties":{"date":"1944-07-07","unit_country":"USA","unit_type":"Infantry","unit_size":"Corp","unit_name":"Nineteenth Corps"}},{"type":"Feature","geometry":{"type":"Point","coordinates":[-0.92568,49.28075]},"properties":{"date":"1944-07-07","unit_country":"USA","unit_type":"Infantry","unit_size":"Corp","unit_name":"Fifth Corps"}},{"type":"Feature","geometry":{"type":"Point","coordinates":[-1.27194,49.3956]},"properties":{"date":"1944-07-07","unit_country":"USA","unit_type":"Infantry","unit_size":"Corp","unit_name":"Seventh Corps"}},{"type":"Feature","geometry":{"type":"Point","coordinates":[-1.02098,49.3219]},"properties":{"date":"1944-07-07","unit_country":"USA","unit_type":"Infantry","unit_size":"Army","unit_name":"First Army"}},{"type":"Feature","geometry":{"type":"Point","coordinates":[-0.45784,49.28114]},"properties":{"date":"1944-07-07","unit_country":"CAN","unit_type":"Infantry","unit_size":"Army","unit_name":"First Army"}},{"type":"Feature","geometry":{"type":"Point","coordinates":[-1.24143,49.38953]},"properties":{"date":"1944-07-07","unit_country":"USA","unit_type":"Infantry","unit_size":"Division","unit_name":"9th Infantry Division"}},{"type":"Feature","geometry":{"type":"Point","coordinates":[-1.07144,49.29353]},"properties":{"date":"1944-07-07","unit_country":"USA","unit_type":"Armoured","unit_size":"Division","unit_name":"3rd Armoured Division"}},{"type":"Feature","geometry":{"type":"Point","coordinates":[-0.18174,49.2423]},"properties":{"date":"1944-07-07","unit_country":"GMN","unit_type":"Infantry","unit_size":"Division","unit_name":"711th Infantry Division"}},{"type":"Feature","geometry":{"type":"Point","coordinates":[-0.16974,49.17657]},"properties":{"date":"1944-07-07","unit_country":"GMN","unit_type":"Infantry","unit_size":"Division","unit_name":"346th Infantry Division"}},{"type":"Feature","geometry":{"type":"Point","coordinates":[-0.43047,49.19028]},"properties":{"date":"1944-07-07","unit_country":"GMN","unit_type":"Armoured","unit_size":"Division","unit_name":"12th SS Panzer Division"}},{"type":"Feature","geometry":{"type":"Point","coordinates":[-0.37541,49.2153]},"properties":{"date":"1944-07-07","unit_country":"GMN","unit_type":"Armoured","unit_size":"Division","unit_name":"21st Panzer Division"}},{"type":"Feature","geometry":{"type":"Point","coordinates":[-0.87494,49.15902]},"properties":{"date":"1944-07-07","unit_country":"USA","unit_type":"Armoured","unit_size":"Division","unit_name":"2nd Armoured Division"}},{"type":"Feature","geometry":{"type":"Point","coordinates":[-0.52071,49.19695]},"properties":{"date":"1944-07-07","unit_country":"GB","unit_type":"Armoured","unit_size":"Division","unit_name":"11th Armoured Division"}},{"type":"Feature","geometry":{"type":"Point","coordinates":[-0.65547,49.10318]},"properties":{"date":"1944-07-07","unit_country":"GMN","unit_type":"Infantry","unit_size":"Division","unit_name":"276th Infantry Division"}},{"type":"Feature","geometry":{"type":"Point","coordinates":[-1.2161,49.26517]},"properties":{"date":"1944-07-07","unit_country":"GMN","unit_type":"Infantry","unit_size":"Division","unit_name":"266th Infantry Division"}},{"type":"Feature","geometry":{"type":"Point","coordinates":[-0.89819,49.06665]},"properties":{"date":"1944-07-07","unit_country":"GMN","unit_type":"Airborne","unit_size":"Division","unit_name":"3rd Fallschirmjäger Division"}},{"type":"Feature","geometry":{"type":"Point","coordinates":[-0.45803,49.11503]},"properties":{"date":"1944-07-07","unit_country":"GMN","unit_type":"Armoured","unit_size":"Division","unit_name":"10th SS Panzer Division"}},{"type":"Feature","geometry":{"type":"Point","coordinates":[-0.42284,49.28724]},"properties":{"date":"1944-07-07","unit_country":"GB","unit_type":"Infantry","unit_size":"Division","unit_name":"59th Infantry Division"}},{"type":"Feature","geometry":{"type":"Point","coordinates":[-0.51912,49.21918]},"properties":{"date":"1944-07-07","unit_country":"GB","unit_type":"Infantry","unit_size":"Division","unit_name":"15th Infantry Division"}},{"type":"Feature","geometry":{"type":"Point","coordinates":[-1.0356,49.18106]},"properties":{"date":"1944-07-07","unit_country":"USA","unit_type":"Infantry","unit_size":"Division","unit_name":"29th Infantry Division"}},{"type":"Feature","geometry":{"type":"Point","coordinates":[-0.97425,49.15403]},"properties":{"date":"1944-07-07","unit_country":"USA","unit_type":"Infantry","unit_size":"Division","unit_name":"2nd Infantry Division"}},{"type":"Feature","geometry":{"type":"Point","coordinates":[-0.66136,49.27504]},"properties":{"date":"1944-07-07","unit_country":"GB","unit_type":"Infantry","unit_size":"Corp","unit_name":"Twelfth Corps"}},{"type":"Feature","geometry":{"type":"Point","coordinates":[-0.43755,48.99675]},"properties":{"date":"1944-07-07","unit_country":"GMN","unit_type":"Armoured","unit_size":"Corp","unit_name":"First SS Panzer Corps"}},{"type":"Feature","geometry":{"type":"Point","coordinates":[-0.30925,48.9154]},"properties":{"date":"1944-07-07","unit_country":"GMN","unit_type":"Armoured","unit_size":"Corp","unit_name":"Second SS Panzer Corps"}},{"type":"Feature","geometry":{"type":"Point","coordinates":[-1.55962,49.3777]},"properties":{"date":"1944-07-07","unit_country":"USA","unit_type":"Infantry","unit_size":"Division","unit_name":"8th Infantry Division"}},{"type":"Feature","geometry":{"type":"Point","coordinates":[-1.27198,49.30204]},"properties":{"date":"1944-07-07","unit_country":"USA","unit_type":"Infantry","unit_size":"Division","unit_name":"83rd Infantry Division"}},{"type":"Feature","geometry":{"type":"Point","coordinates":[-1.36684,49.50195]},"properties":{"date":"1944-07-07","unit_country":"USA","unit_type":"Infantry","unit_size":"Corp","unit_name":"Eighth Corps"}},{"type":"Feature","geometry":{"type":"Point","coordinates":[-1.3418,49.12884]},"properties":{"date":"1944-07-07","unit_country":"GMN","unit_type":"Infantry","unit_size":"Corp","unit_name":"Eighty-fourth Corps"}},{"type":"Feature","geometry":{"type":"Point","coordinates":[-0.84372,49.12161]},"properties":{"date":"1944-07-07","unit_country":"USA","unit_type":"Infantry","unit_size":"Division","unit_name":"1st Infantry Division"}},{"type":"Feature","geometry":{"type":"Point","coordinates":[-1.42603,49.30699]},"properties":{"date":"1944-07-07","unit_country":"USA","unit_type":"Infantry","unit_size":"Division","unit_name":"90th Infantry Division"}},{"type":"Feature","geometry":{"type":"Point","coordinates":[-1.13113,49.13316]},"properties":{"date":"1944-07-07","unit_country":"GMN","unit_type":"Infantry","unit_size":"Division","unit_name":"352nd Infantry Division"}},{"type":"Feature","geometry":{"type":"Point","coordinates":[-1.64826,49.31993]},"properties":{"date":"1944-07-07","unit_country":"USA","unit_type":"Infantry","unit_size":"Division","unit_name":"79th Infantry Division"}},{"type":"Feature","geometry":{"type":"Point","coordinates":[-0.41478,49.14705]},"properties":{"date":"1944-07-07","unit_country":"GMN","unit_type":"Armoured","unit_size":"Division","unit_name":"1st SS Panzer Division"}},{"type":"Feature","geometry":{"type":"Point","coordinates":[-1.56757,49.27681]},"properties":{"date":"1944-07-07","unit_country":"GMN","unit_type":"Infantry","unit_size":"Division","unit_name":"353rd Infantry Division"}},{"type":"Feature","geometry":{"type":"Point","coordinates":[-0.65682,49.1328]},"properties":{"date":"1944-07-07","unit_country":"GMN","unit_type":"Armoured","unit_size":"Division","unit_name":"2nd SS Panzer Division"}},{"type":"Feature","geometry":{"type":"Point","coordinates":[-0.53765,49.2952]},"properties":{"date":"1944-07-07","unit_country":"GB","unit_type":"Infantry","unit_size":"Army","unit_name":"Second Army"}},{"type":"Feature","geometry":{"type":"Point","coordinates":[-1.0545,49.26093]},"properties":{"date":"1944-07-07","unit_country":"USA","unit_type":"Infantry","unit_size":"Division","unit_name":"30th Infantry Division"}},{"type":"Feature","geometry":{"type":"Point","coordinates":[-0.75439,49.06144]},"properties":{"date":"1944-07-07","unit_country":"GMN","unit_type":"Armoured","unit_size":"Division","unit_name":"2nd Panzer Division"}},{"type":"Feature","geometry":{"type":"Point","coordinates":[-1.27724,49.2281]},"properties":{"date":"1944-07-07","unit_country":"GMN","unit_type":"Mechanized","unit_size":"Division","unit_name":"17th Panzer Grenadier Division"}},{"type":"Feature","geometry":{"type":"Point","coordinates":[-0.35041,49.2531]},"properties":{"date":"1944-07-07","unit_country":"GB","unit_type":"Infantry","unit_size":"Division","unit_name":"3rd Infantry Division"}},{"type":"Feature","geometry":{"type":"Point","coordinates":[-1.63745,49.26542]},"properties":{"date":"1944-07-07","unit_country":"GMN","unit_type":"Infantry","unit_size":"Division","unit_name":"243rd Infantry Division"}},{"type":"Feature","geometry":{"type":"Point","coordinates":[-1.48628,49.26689]},"properties":{"date":"1944-07-07","unit_country":"GMN","unit_type":"Infantry","unit_size":"Division","unit_name":"91st Infantry Division"}},{"type":"Feature","geometry":{"type":"Point","coordinates":[-1.42258,49.27356]},"properties":{"date":"1944-07-07","unit_country":"GMN","unit_type":"Infantry","unit_size":"Division","unit_name":"77th Infantry Division"}},{"type":"Feature","geometry":{"type":"Point","coordinates":[-1.35556,49.27247]},"properties":{"date":"1944-07-07","unit_country":"GMN","unit_type":"Infantry","unit_size":"Division","unit_name":"265th Infantry Division"}},{"type":"Feature","geometry":{"type":"Point","coordinates":[-1.30089,49.309]},"properties":{"date":"1944-07-07","unit_country":"USA","unit_type":"Infantry","unit_size":"Division","unit_name":"4th Infantry Division"}},{"type":"Feature","geometry":{"type":"Point","coordinates":[-0.63117,49.25488]},"properties":{"date":"1944-07-07","unit_country":"GB","unit_type":"Infantry","unit_size":"Corp","unit_name":"Thirty Corps"}},{"type":"Feature","geometry":{"type":"Point","coordinates":[-0.54989,49.28001]},"properties":{"date":"1944-07-07","unit_country":"GB","unit_type":"Infantry","unit_size":"Corp","unit_name":"Eigth Corps"}},{"type":"Feature","geometry":{"type":"Point","coordinates":[-0.36798,49.28621]},"properties":{"date":"1944-07-07","unit_country":"GB","unit_type":"Infantry","unit_size":"Corp","unit_name":"First Corps"}},{"type":"Feature","geometry":{"type":"Point","coordinates":[-0.65464,49.34088]},"properties":{"date":"1944-07-07","unit_country":"GB","unit_type":"Armoured","unit_size":"Division","unit_name":"Guards Division"}},{"type":"Feature","geometry":{"type":"Point","coordinates":[-0.57234,48.87228]},"properties":{"date":"1944-07-07","unit_country":"GMN","unit_type":"Armoured","unit_size":"Corp","unit_name":"Fourty-seventh Panzer Corps"}},{"type":"Feature","geometry":{"type":"Point","coordinates":[-1.4769,49.33217]},"properties":{"date":"1944-07-07","unit_country":"USA","unit_type":"Airborne","unit_size":"Division","unit_name":"82nd Airborne Division"}},{"type":"Feature","geometry":{"type":"Point","coordinates":[-0.56975,49.11799]},"properties":{"date":"1944-07-07","unit_country":"GMN","unit_type":"Armoured","unit_size":"Division","unit_name":"9th SS Panzer Division"}},{"type":"Feature","geometry":{"type":"Point","coordinates":[-1.17177,49.22646]},"properties":{"date":"1944-07-07","unit_country":"GMN","unit_type":"Infantry","unit_size":"Division","unit_name":"275th Infantry Division"}},{"type":"Feature","geometry":{"type":"Point","coordinates":[-1.61059,49.60979]},"properties":{"date":"1944-07-07","unit_country":"USA","unit_type":"Airborne","unit_size":"Division","unit_name":"101st Airborne Division"}},{"type":"Feature","geometry":{"type":"Point","coordinates":[-1.10949,48.96912]},"properties":{"date":"1944-07-07","unit_country":"GMN","unit_type":"Airborne","unit_size":"Corp","unit_name":"Second Fallschirmjäger Corps"}},{"type":"Feature","geometry":{"type":"Point","coordinates":[-0.41061,49.26637]},"properties":{"date":"1944-07-07","unit_country":"CAN","unit_type":"Infantry","unit_size":"Brigade","unit_name":"9th Canadian Infantry Brigade"}},{"type":"Feature","geometry":{"type":"Point","coordinates":[-0.5204,49.23434]},"properties":{"date":"1944-07-07","unit_country":"CAN","unit_type":"Infantry","unit_size":"Brigade","unit_name":"7th Canadian Infantry Brigade"}},{"type":"Feature","geometry":{"type":"Point","coordinates":[-0.48537,49.18224]},"properties":{"date":"1944-07-07","unit_country":"CAN","unit_type":"Infantry","unit_size":"Brigade","unit_name":"8th Canadian Infantry Brigade"}},{"type":"Feature","geometry":{"type":"Point","coordinates":[-0.58334,49.29792]},"properties":{"date":"1944-07-07","unit_country":"CAN","unit_type":"Infantry","unit_size":"Brigade","unit_name":"4th Canadian Infantry Brigade"}},{"type":"Feature","geometry":{"type":"Point","coordinates":[-0.58231,49.31098]},"properties":{"date":"1944-07-07","unit_country":"CAN","unit_type":"Infantry","unit_size":"Division","unit_name":"2nd Canadian Infantry Division"}},{"type":"Feature","geometry":{"type":"Point","coordinates":[-0.4548,49.1861]},"properties":{"date":"1944-07-07","unit_country":"CAN","unit_type":"Infantry","unit_size":"Battalion","unit_name":"The Queen?s Own Rifles of Canadaÿ"}},{"type":"Feature","geometry":{"type":"Point","coordinates":[-0.41642,49.23261]},"properties":{"date":"1944-07-07","unit_country":"CAN","unit_type":"Infantry","unit_size":"Battalion","unit_name":"The North Nova Scotia Highlanders"}},{"type":"Feature","geometry":{"type":"Point","coordinates":[-0.44488,49.1834]},"properties":{"date":"1944-07-07","unit_country":"CAN","unit_type":"Infantry","unit_size":"Battalion","unit_name":"North Shore (New Brunswick) Regiment"}},{"type":"Feature","geometry":{"type":"Point","coordinates":[-0.47855,49.21055]},"properties":{"date":"1944-07-07","unit_country":"CAN","unit_type":"Infantry","unit_size":"Battalion","unit_name":"The Canadian Scottish Regiment"}},{"type":"Feature","geometry":{"type":"Point","coordinates":[-0.48107,49.20531]},"properties":{"date":"1944-07-07","unit_country":"CAN","unit_type":"Infantry","unit_size":"Battalion","unit_name":"The Regina Rifles"}},{"type":"Feature","geometry":{"type":"Point","coordinates":[-0.46164,49.23387]},"properties":{"date":"1944-07-07","unit_country":"CAN","unit_type":"Infantry","unit_size":"Battalion","unit_name":"The Royal Winnipeg Rifles"}},{"type":"Feature","geometry":{"type":"Point","coordinates":[-0.44052,49.24237]},"properties":{"date":"1944-07-07","unit_country":"CAN","unit_type":"Infantry","unit_size":"Battalion","unit_name":"Highland Light Infantry of Canada"}},{"type":"Feature","geometry":{"type":"Point","coordinates":[-0.44245,49.22839]},"properties":{"date":"1944-07-07","unit_country":"CAN","unit_type":"Infantry","unit_size":"Battalion","unit_name":"Stormont, Dundas & Glengarry Highlanders"}},{"type":"Feature","geometry":{"type":"Point","coordinates":[-0.41431,49.26253]},"properties":{"date":"1944-07-07","unit_country":"CAN","unit_type":"Armoured","unit_size":"Battalion","unit_name":"6th Canadian Armoured Regiment (1st Hussars)ÿ"}},{"type":"Feature","geometry":{"type":"Point","coordinates":[-0.46192,49.23774]},"properties":{"date":"1944-07-07","unit_country":"CAN","unit_type":"Artillery","unit_size":"Battalion","unit_name":"12th Field Regiment Royal Canadian Artillery"}},{"type":"Feature","geometry":{"type":"Point","coordinates":[-0.47194,49.23503]},"properties":{"date":"1944-07-07","unit_country":"CAN","unit_type":"Artillery","unit_size":"Battalion","unit_name":"13th Field Regiment Royal Canadian Artillery"}},{"type":"Feature","geometry":{"type":"Point","coordinates":[-0.48253,49.23193]},"properties":{"date":"1944-07-07","unit_country":"CAN","unit_type":"Artillery","unit_size":"Battalion","unit_name":"14th Field Regiment Royal Canadian Artillery"}},{"type":"Feature","geometry":{"type":"Point","coordinates":[-0.43098,49.25396]},"properties":{"date":"1944-07-07","unit_country":"CAN","unit_type":"Armoured","unit_size":"Battalion","unit_name":"27th Canadian Armoured Regiment (The Sherbrooke Fusiliers)ÿ"}},{"type":"Feature","geometry":{"type":"Point","coordinates":[-0.58561,49.31332]},"properties":{"date":"1944-07-07","unit_country":"CAN","unit_type":"Infantry","unit_size":"Brigade","unit_name":"5th Canadian Infantry Brigade"}},{"type":"Feature","geometry":{"type":"Point","coordinates":[-0.45984,49.25043]},"properties":{"date":"1944-07-07","unit_country":"CAN","unit_type":"Artillery","unit_size":"Battalion","unit_name":"19th Field Regiment Royal Canadian Artillery"}},{"type":"Feature","geometry":{"type":"Point","coordinates":[-0.58561,49.31332]},"properties":{"date":"1944-07-07","unit_country":"CAN","unit_type":"Infantry","unit_size":"Battalion","unit_name":"The Royal Regiment of Canada"}},{"type":"Feature","geometry":{"type":"Point","coordinates":[-0.40681,49.27094]},"properties":{"date":"1944-07-07","unit_country":"CAN","unit_type":"Armoured","unit_size":"Brigade","unit_name":"2nd Canadian Armoured Brigade"}},{"type":"Feature","geometry":{"type":"Point","coordinates":[-0.58569,49.30768]},"properties":{"date":"1944-07-07","unit_country":"CAN","unit_type":"Infantry","unit_size":"Battalion","unit_name":"Essex Scottish Regiment"}},{"type":"Feature","geometry":{"type":"Point","coordinates":[-0.58676,49.31228]},"properties":{"date":"1944-07-07","unit_country":"CAN","unit_type":"Infantry","unit_size":"Battalion","unit_name":"The Calgary Highlanders"}},{"type":"Feature","geometry":{"type":"Point","coordinates":[-0.45035,49.30895]},"properties":{"date":"1944-07-07","unit_country":"CAN","unit_type":"Infantry","unit_size":"Battalion","unit_name":"Royal Hamilton Light Infantry"}},{"type":"Feature","geometry":{"type":"Point","coordinates":[-0.58715,49.31262]},"properties":{"date":"1944-07-07","unit_country":"CAN","unit_type":"Infantry","unit_size":"Battalion","unit_name":"Queen's Own Cameron Highlanders of Canada"}},{"type":"Feature","geometry":{"type":"Point","coordinates":[-0.58771,49.31385]},"properties":{"date":"1944-07-07","unit_country":"CAN","unit_type":"Infantry","unit_size":"Battalion","unit_name":"Le Regiment de Maisonneuve"}},{"type":"Feature","geometry":{"type":"Point","coordinates":[-0.47076,49.32581]},"properties":{"date":"1944-07-07","unit_country":"CAN","unit_type":"Infantry","unit_size":"Battalion","unit_name":"Les Fusiliers Mont-Royal"}},{"type":"Feature","geometry":{"type":"Point","coordinates":[-0.57719,49.31161]},"properties":{"date":"1944-07-07","unit_country":"CAN","unit_type":"Infantry","unit_size":"Battalion","unit_name":"The Black Watch (Royal Highalnders) of Canada"}},{"type":"Feature","geometry":{"type":"Point","coordinates":[-0.2526,49.25684]},"properties":{"date":"1944-07-07","unit_country":"CAN","unit_type":"Airborne","unit_size":"Battalion","unit_name":"1st Canadian Parachute Battalion"}},{"type":"Feature","geometry":{"type":"Point","coordinates":[-0.47625,49.24845]},"properties":{"date":"1944-07-07","unit_country":"CAN","unit_type":"Engineer","unit_size":"Company","unit_name":"6th Field Company, Royal Canadian Engineers"}},{"type":"Feature","geometry":{"type":"Point","coordinates":[-0.44856,49.26047]},"properties":{"date":"1944-07-07","unit_country":"CAN","unit_type":"Infantry","unit_size":"Division","unit_name":"3rd Canadian Infantry Division"}},{"type":"Feature","geometry":{"type":"Point","coordinates":[-0.48824,49.18219]},"properties":{"date":"1944-07-07","unit_country":"CAN","unit_type":"Armoured","unit_size":"Battalion","unit_name":"10th Canadian Armoured Regiment (The Fort Garry Horse)"}},{"type":"Feature","geometry":{"type":"Point","coordinates":[-0.62772,49.35827]},"properties":{"date":"1944-07-07","unit_country":"CAN","unit_type":"Artillery","unit_size":"Battalion","unit_name":"6th Field Regiment, Royal Canadian Artillery"}},{"type":"Feature","geometry":{"type":"Point","coordinates":[-0.65151,49.29554]},"properties":{"date":"1944-07-07","unit_country":"CAN","unit_type":"Artillery","unit_size":"Battalion","unit_name":"4th Field Regiment, Royal Canadian Artillery"}},{"type":"Feature","geometry":{"type":"Point","coordinates":[-0.44362,49.18241]},"properties":{"date":"1944-07-07","unit_country":"Can","unit_type":"Infantry","unit_size":"Battalion","unit_name":"Regiment de la Chaudiere"}},{"type":"Feature","geometry":{"type":"Point","coordinates":[-0.41576,49.26403]},"properties":{"date":"1944-07-07","unit_country":"CAN","unit_type":"Engineer","unit_size":"Company","unit_name":"18th Field Company Royal Canadian Engineers"}},{"type":"Feature","geometry":{"type":"Point","coordinates":[-0.452,49.23998]},"properties":{"date":"1944-07-07","unit_country":"CAN","unit_type":"Engineer","unit_size":"Company","unit_name":"5th Field Company Royal Canadian Engineers"}},{"type":"Feature","geometry":{"type":"Point","coordinates":[-0.48451,49.20947]},"properties":{"date":"1944-07-07","unit_country":"CAN","unit_type":"Engineer","unit_size":"Company","unit_name":"16th Field Company Royal Canadian Engineers"}},{"type":"Feature","geometry":{"type":"Point","coordinates":[-0.45358,49.25811]},"properties":{"date":"1944-07-07","unit_country":"CAN","unit_type":"Infantry","unit_size":"Battalion","unit_name":"The Cameron Highlanders of Ottawa (Duke of Edinburgh's Own)"}},{"type":"Feature","geometry":{"type":"Point","coordinates":[-0.45653,49.23661]},"properties":{"date":"1944-07-07","unit_country":"CAN","unit_type":"Infantry","unit_size":"Company","unit_name":"The Cameron Highlanders of Ottawa (Duke of Edinburgh's Own)"}},{"type":"Feature","geometry":{"type":"Point","coordinates":[-0.44167,49.18736]},"properties":{"date":"1944-07-07","unit_country":"CAN","unit_type":"Infantry","unit_size":"Company","unit_name":"The Cameron Highlanders of Ottawa (Duke of Edinburgh's Own)"}},{"type":"Feature","geometry":{"type":"Point","coordinates":[-0.48414,49.18125]},"properties":{"date":"1944-07-07","unit_country":"CAN","unit_type":"Infantry","unit_size":"Platoon","unit_name":"The Cameron Highlanders of Ottawa (Duke of Edinburgh's Own)"}},{"type":"Feature","geometry":{"type":"Point","coordinates":[-0.45458,49.17694]},"properties":{"date":"1944-07-07","unit_country":"CAN","unit_type":"Infantry","unit_size":"Platoon","unit_name":"The Cameron Highlanders of Ottawa (Duke of Edinburgh's Own)"}},{"type":"Feature","geometry":{"type":"Point","coordinates":[-0.42858,49.21656]},"properties":{"date":"1944-07-07","unit_country":"CAN","unit_type":"Infantry","unit_size":"Company","unit_name":"The Cameron Highlanders of Ottawa (Duke of Edinburgh's Own)"}},{"type":"Feature","geometry":{"type":"Point","coordinates":[-0.475,49.22361]},"properties":{"date":"1944-07-07","unit_country":"CAN","unit_type":"Infantry","unit_size":"Company","unit_name":"The Cameron Highlanders of Ottawa (Duke of Edinburgh's Own)"}}]}