{
"type": "FeatureCollection",
"name": "21-06-44-troops",
"crs": { "type": "name", "properties": { "name": "urn:ogc:def:crs:OGC:1.3:CRS84" } },
"features": [
{ "type": "Feature", "properties": { "id": 22, "name": "82nd Airborne Division", "country": "US", "front": 1 }, "geometry": { "type": "Point", "coordinates": [ -1.434103565956344, 49.350647818267745 ] } },
{ "type": "Feature", "properties": { "id": 1, "name": "101st Airborne Division", "country": "US", "front": 1 }, "geometry": { "type": "Point", "coordinates": [ -1.300490307070703, 49.305688462221156 ] } },
{ "type": "Feature", "properties": { "id": 31, "name": "9th Infantry Division", "country": "US", "front": 1 }, "geometry": { "type": "Point", "coordinates": [ -1.775761382835117, 49.606603142157489 ] } },
{ "type": "Feature", "properties": { "id": 8, "name": "29th Infantry Division", "country": "US", "front": 1 }, "geometry": { "type": "Point", "coordinates": [ -1.057953195832638, 49.197143946147399 ] } },
{ "type": "Feature", "properties": { "id": 10, "name": "2nd Infantry Division", "country": "US", "front": 1 }, "geometry": { "type": "Point", "coordinates": [ -0.956290933637042, 49.170563986642087 ] } },
{ "type": "Feature", "properties": { "id": 5, "name": "1st Infantry Division", "country": "US", "front": 1 }, "geometry": { "type": "Point", "coordinates": [ -0.8480932403003, 49.111657548375533 ] } },
{ "type": "Feature", "properties": { "id": 9, "name": "2nd Armored Division", "country": "US", "front": 1 }, "geometry": { "type": "Point", "coordinates": [ -0.885127350100124, 49.171513516757571 ] } },
{ "type": "Feature", "properties": { "id": 13, "name": "4th Infantry Division", "country": "US", "front": 0 }, "geometry": { "type": "Point", "coordinates": [ -1.464602244615024, 49.599073370737713 ] } },
{ "type": "Feature", "properties": { "id": 23, "name": "90th Infantry Division", "country": "US", "front": 1 }, "geometry": { "type": "Point", "coordinates": [ -1.376010844701718, 49.331722567181984 ] } },
{ "type": "Feature", "properties": { "id": 29, "name": "VII Corps", "country": "US", "front": 0 }, "geometry": { "type": "Point", "coordinates": [ -1.490743969179605, 49.526304178957965 ] } },
{ "type": "Feature", "properties": { "id": 36, "name": "First Army", "country": "US", "front": 0 }, "geometry": { "type": "Point", "coordinates": [ -0.992643983323386, 49.392871799621048 ] } },
{ "type": "Feature", "properties": { "id": 28, "name": "V Corps", "country": "US", "front": 0 }, "geometry": { "type": "Point", "coordinates": [ -0.908364438601975, 49.295744537006122 ] } },
{ "type": "Feature", "properties": { "id": 30, "name": "XXX Corps", "country": "UK", "front": 0 }, "geometry": { "type": "Point", "coordinates": [ -0.656024180652192, 49.245994810686419 ] } },
{ "type": "Feature", "properties": { "id": 37, "name": "49th Infantry Division", "country": "UK", "front": 1 }, "geometry": { "type": "Point", "coordinates": [ -0.603014572507345, 49.229874621710529 ] } },
{ "type": "Feature", "properties": { "id": 14, "name": "50th Infantry Division", "country": "UK", "front": 1 }, "geometry": { "type": "Point", "coordinates": [ -0.672725838012897, 49.189076539053779 ] } },
{ "type": "Feature", "properties": { "id": 21, "name": "7th Armoured Division", "country": "UK", "front": 1 }, "geometry": { "type": "Point", "coordinates": [ -0.766763430543823, 49.116410663266933 ] } },
{ "type": "Feature", "properties": { "id": 6, "name": "21st Army Group", "country": "UK", "front": 0 }, "geometry": { "type": "Point", "coordinates": [ -0.550432325783978, 49.291106616876107 ] } },
{ "type": "Feature", "properties": { "id": 11, "name": "3rd Canadian Infantry Division", "country": "CA", "front": 1 }, "geometry": { "type": "Point", "coordinates": [ -0.523137080782234, 49.219915405908253 ] } },
{ "type": "Feature", "properties": { "id": 12, "name": "3rd Infantry Division", "country": "UK", "front": 1 }, "geometry": { "type": "Point", "coordinates": [ -0.352489712096769, 49.248839003764324 ] } },
{ "type": "Feature", "properties": { "id": 27, "name": "I Corps", "country": "UK", "front": 0 }, "geometry": { "type": "Point", "coordinates": [ -0.356120507175183, 49.298585863240802 ] } },
{ "type": "Feature", "properties": { "id": 15, "name": "51st Infantry Division", "country": "UK", "front": 1 }, "geometry": { "type": "Point", "coordinates": [ -0.232673474509102, 49.199041968381579 ] } },
{ "type": "Feature", "properties": { "id": 17, "name": "6th Airborne Division", "country": "UK", "front": 1 }, "geometry": { "type": "Point", "coordinates": [ -0.283504605606899, 49.228214891804257 ] } },
{ "type": "Feature", "properties": { "id": 38, "name": "Second Army", "country": "UK", "front": 0 }, "geometry": { "type": "Point", "coordinates": [ -0.544558771744878, 49.288403686086042 ] } },
{ "type": "Feature", "properties": { "id": 32, "name": "21st Panzer Division", "country": "GE", "front": 1 }, "geometry": { "type": "Point", "coordinates": [ -0.340145008830161, 49.155369027932288 ] } },
{ "type": "Feature", "properties": { "id": 97, "name": "346th Infantry Division", "country": "GE", "front": 1 }, "geometry": { "type": "Point", "coordinates": [ -0.223959566320908, 49.166290875750342 ] } },
{ "type": "Feature", "properties": { "id": 39, "name": "711th Infantry Division", "country": "GE", "front": 1 }, "geometry": { "type": "Point", "coordinates": [ -0.181842343411304, 49.271112848000179 ] } },
{ "type": "Feature", "properties": { "id": 40, "name": "Panzer Lehr Division", "country": "GE", "front": 1 }, "geometry": { "type": "Point", "coordinates": [ -0.693421369959857, 49.116410663266933 ] } },
{ "type": "Feature", "properties": { "id": 41, "name": "17th Panzer Division", "country": "GE", "front": 1 }, "geometry": { "type": "Point", "coordinates": [ -1.249659175972905, 49.254052932214087 ] } },
{ "type": "Feature", "properties": { "id": 42, "name": "352nd Infantry Division", "country": "GE", "front": 0 }, "geometry": { "type": "Point", "coordinates": [ -1.105153531852022, 49.129241798682649 ] } },
{ "type": "Feature", "properties": { "id": 19, "name": "709th Static Infantry Division", "country": "GE", "front": 0 }, "geometry": { "type": "Point", "coordinates": [ -1.429020452846565, 49.64235367751801 ] } },
{ "type": "Feature", "properties": { "id": 7, "name": "243rd Static Infantry Division", "country": "GE", "front": 1 }, "geometry": { "type": "Point", "coordinates": [ -1.646505078043573, 49.604250213503214 ] } },
{ "type": "Feature", "properties": { "id": 26, "name": "91st Infantry Division", "country": "GE", "front": 1 }, "geometry": { "type": "Point", "coordinates": [ -1.400700251234934, 49.276798176004341 ] } },
{ "type": "Feature", "properties": { "id": 33, "name": "716th Static Infantry Division", "country": "GE", "front": 1 }, "geometry": { "type": "Point", "coordinates": [ -0.434545680868929, 49.105953209336271 ] } },
{ "type": "Feature", "properties": { "id": 45, "name": "3rd Parachute Division", "country": "GE", "front": 1 }, "geometry": { "type": "Point", "coordinates": [ -0.984611135248672, 49.104051617248778 ] } },
{ "type": "Feature", "properties": { "id": 34, "name": "12th Panzer Division", "country": "GE", "front": 1 }, "geometry": { "type": "Point", "coordinates": [ -0.535481784048843, 49.145394802391195 ] } },
{ "type": "Feature", "properties": { "id": 46, "name": "2nd Panzer Division", "country": "GE", "front": 0 }, "geometry": { "type": "Point", "coordinates": [ -0.883675032068759, 49.062673959236442 ] } },
{ "type": "Feature", "properties": { "id": 47, "name": "77th Infantry Division", "country": "GE", "front": 0 }, "geometry": { "type": "Point", "coordinates": [ -1.501636354414848, 49.313736836870206 ] } },
{ "type": "Feature", "properties": { "id": 49, "name": "XIX Corps", "country": "US", "front": 0 }, "geometry": { "type": "Point", "coordinates": [ -1.023097563079862, 49.284377594048514 ] } },
{ "type": "Feature", "properties": { "id": 48, "name": "30th Infantry DivisionL", "country": "US", "front": 1 }, "geometry": { "type": "Point", "coordinates": [ -1.119676712165678, 49.270639041088046 ] } },
{ "type": "Feature", "properties": { "id": 50, "name": "11th Armoured Division", "country": "UK", "front": 0 }, "geometry": { "type": "Point", "coordinates": [ -0.518780126688137, 49.253578961473778 ] } },
{ "type": "Feature", "properties": { "id": 52, "name": "79th Infantry Division", "country": "US", "front": 1 }, "geometry": { "type": "Point", "coordinates": [ -1.568442983857669, 49.561878077855908 ] } },
{ "type": "Feature", "properties": { "id": 89, "name": "265th Infantry Division", "country": "GE", "front": 1 }, "geometry": { "type": "Point", "coordinates": [ -1.340429052933259, 49.254526898403419 ] } },
{ "type": "Feature", "properties": { "id": 90, "name": "275th Infantry Division", "country": "GE", "front": 1 }, "geometry": { "type": "Point", "coordinates": [ -1.160341617043917, 49.218018184835884 ] } },
{ "type": "Feature", "properties": { "id": 91, "name": "VIII Corps", "country": "UK", "front": 0 }, "geometry": { "type": "Point", "coordinates": [ -0.576371039051697, 49.257259713409823 ] } },
{ "type": "Feature", "properties": { "id": 92, "name": "VIII Corps", "country": "US", "front": 0 }, "geometry": { "type": "Point", "coordinates": [ -1.280884013647267, 49.382331309542273 ] } },
{ "type": "Feature", "properties": { "id": 93, "name": "319th Static Infantry Division", "country": "GE", "front": 1 }, "geometry": { "type": "Point", "coordinates": [ -1.326632031635286, 49.590130256807875 ] } },
{ "type": "Feature", "properties": { "id": 96, "name": "2nd SS Panzer Division Das Reich", "country": "GE", "front": 0 }, "geometry": { "type": "Point", "coordinates": [ -1.081190284334489, 49.040306167222383 ] } },
{ "type": "Feature", "properties": { "id": 87, "name": "245th Infantry Division", "country": "GE", "front": 0 }, "geometry": { "type": "Point", "coordinates": [ -1.3197335209863, 48.908035847328989 ] } },
{ "type": "Feature", "properties": { "id": 98, "name": "353rd Infantry Division", "country": "GE", "front": 1 }, "geometry": { "type": "Point", "coordinates": [ -1.061583990911052, 49.104527022102346 ] } },
{ "type": "Feature", "properties": { "id": 99, "name": "XII Corps", "country": "UK", "front": 0 }, "geometry": { "type": "Point", "coordinates": [ -0.495049667725876, 49.293392732203571 ] } },
{ "type": "Feature", "properties": { "id": 100, "name": "43rd (Wessex) Infantry Division", "country": "UK", "front": 0 }, "geometry": { "type": "Point", "coordinates": [ -0.444018998328855, 49.388533504487768 ] } },
{ "type": "Feature", "properties": { "id": 51, "name": "15th (Scottish) Infantry Division", "country": "UK", "front": 0 }, "geometry": { "type": "Point", "coordinates": [ -0.454178047273768, 49.350008629289221 ] } }
]
}
