{
"type": "FeatureCollection",
"name": "24-06-44-troops",
"crs": { "type": "name", "properties": { "name": "urn:ogc:def:crs:OGC:1.3:CRS84" } },
"features": [
{ "type": "Feature", "properties": { "id": 22, "name": "82nd Airborne Division", "country": "US", "front": 1 }, "geometry": { "type": "Point", "coordinates": [ -1.466497395078597, 49.40059064290817 ] } },
{ "type": "Feature", "properties": { "id": 1, "name": "101st Airborne Division", "country": "US", "front": 1 }, "geometry": { "type": "Point", "coordinates": [ -1.297976700815927, 49.303660992535775 ] } },
{ "type": "Feature", "properties": { "id": 31, "name": "9th Infantry Division", "country": "US", "front": 1 }, "geometry": { "type": "Point", "coordinates": [ -1.712107343099724, 49.614790125684515 ] } },
{ "type": "Feature", "properties": { "id": 8, "name": "29th Infantry Division", "country": "US", "front": 1 }, "geometry": { "type": "Point", "coordinates": [ -1.04220770384989, 49.173342889966122 ] } },
{ "type": "Feature", "properties": { "id": 10, "name": "2nd Infantry Division", "country": "US", "front": 1 }, "geometry": { "type": "Point", "coordinates": [ -0.962728085633808, 49.145987121127462 ] } },
{ "type": "Feature", "properties": { "id": 5, "name": "1st Infantry Division", "country": "US", "front": 1 }, "geometry": { "type": "Point", "coordinates": [ -0.838055639390724, 49.108739465363122 ] } },
{ "type": "Feature", "properties": { "id": 9, "name": "2nd Armored Division", "country": "US", "front": 1 }, "geometry": { "type": "Point", "coordinates": [ -0.889523174118996, 49.146768924213831 ] } },
{ "type": "Feature", "properties": { "id": 13, "name": "4th Infantry Division", "country": "US", "front": 0 }, "geometry": { "type": "Point", "coordinates": [ -1.522670959832822, 49.604722062593225 ] } },
{ "type": "Feature", "properties": { "id": 23, "name": "90th Infantry Division", "country": "US", "front": 1 }, "geometry": { "type": "Point", "coordinates": [ -1.345186398854051, 49.331319034091571 ] } },
{ "type": "Feature", "properties": { "id": 29, "name": "VII Corps", "country": "US", "front": 0 }, "geometry": { "type": "Point", "coordinates": [ -1.508328773087061, 49.479084046227101 ] } },
{ "type": "Feature", "properties": { "id": 36, "name": "First Army", "country": "US", "front": 0 }, "geometry": { "type": "Point", "coordinates": [ -0.992643983323386, 49.392871799621048 ] } },
{ "type": "Feature", "properties": { "id": 28, "name": "V Corps", "country": "US", "front": 0 }, "geometry": { "type": "Point", "coordinates": [ -0.897590654163485, 49.290800559056848 ] } },
{ "type": "Feature", "properties": { "id": 30, "name": "XXX Corps", "country": "UK", "front": 0 }, "geometry": { "type": "Point", "coordinates": [ -0.640252980522129, 49.241568678742532 ] } },
{ "type": "Feature", "properties": { "id": 37, "name": "49th Infantry Division", "country": "UK", "front": 1 }, "geometry": { "type": "Point", "coordinates": [ -0.616349335945864, 49.188089194192386 ] } },
{ "type": "Feature", "properties": { "id": 14, "name": "50th Infantry Division", "country": "UK", "front": 1 }, "geometry": { "type": "Point", "coordinates": [ -0.677901220729747, 49.188870332784333 ] } },
{ "type": "Feature", "properties": { "id": 21, "name": "7th Armoured Division", "country": "UK", "front": 1 }, "geometry": { "type": "Point", "coordinates": [ -0.773842649727191, 49.109189130008168 ] } },
{ "type": "Feature", "properties": { "id": 6, "name": "21st Army Group", "country": "UK", "front": 0 }, "geometry": { "type": "Point", "coordinates": [ -0.831855631578756, 49.271308659542626 ] } },
{ "type": "Feature", "properties": { "id": 11, "name": "3rd Canadian Infantry Division", "country": "CA", "front": 1 }, "geometry": { "type": "Point", "coordinates": [ -0.513563664267924, 49.212298756083634 ] } },
{ "type": "Feature", "properties": { "id": 12, "name": "3rd Infantry Division", "country": "UK", "front": 1 }, "geometry": { "type": "Point", "coordinates": [ -0.361177930094233, 49.244299653523662 ] } },
{ "type": "Feature", "properties": { "id": 27, "name": "I Corps", "country": "UK", "front": 0 }, "geometry": { "type": "Point", "coordinates": [ -0.381496027984059, 49.286415553370887 ] } },
{ "type": "Feature", "properties": { "id": 15, "name": "51st Infantry Division", "country": "UK", "front": 1 }, "geometry": { "type": "Point", "coordinates": [ -0.254209120615446, 49.218934791607502 ] } },
{ "type": "Feature", "properties": { "id": 17, "name": "6th Airborne Division", "country": "UK", "front": 1 }, "geometry": { "type": "Point", "coordinates": [ -0.234488613840028, 49.237667024200142 ] } },
{ "type": "Feature", "properties": { "id": 38, "name": "Second Army", "country": "UK", "front": 0 }, "geometry": { "type": "Point", "coordinates": [ -0.544638402217069, 49.284856346249818 ] } },
{ "type": "Feature", "properties": { "id": 32, "name": "21st Panzer Division", "country": "GE", "front": 1 }, "geometry": { "type": "Point", "coordinates": [ -0.352886353381845, 49.206930722690323 ] } },
{ "type": "Feature", "properties": { "id": 97, "name": "346th Infantry Division", "country": "GE", "front": 1 }, "geometry": { "type": "Point", "coordinates": [ -0.176522275742585, 49.163086247315718 ] } },
{ "type": "Feature", "properties": { "id": 39, "name": "711th Infantry Division", "country": "GE", "front": 1 }, "geometry": { "type": "Point", "coordinates": [ -0.174729502399365, 49.23805720352501 ] } },
{ "type": "Feature", "properties": { "id": 40, "name": "Panzer Lehr Division", "country": "GE", "front": 1 }, "geometry": { "type": "Point", "coordinates": [ -0.642045753865349, 49.112651295046973 ] } },
{ "type": "Feature", "properties": { "id": 41, "name": "17th Panzer Division", "country": "GE", "front": 1 }, "geometry": { "type": "Point", "coordinates": [ -1.262718825065936, 49.247518108478488 ] } },
{ "type": "Feature", "properties": { "id": 42, "name": "352nd Infantry Division", "country": "GE", "front": 0 }, "geometry": { "type": "Point", "coordinates": [ -1.153060855572323, 49.120767357640922 ] } },
{ "type": "Feature", "properties": { "id": 19, "name": "709th Static Infantry Division", "country": "GE", "front": 0 }, "geometry": { "type": "Point", "coordinates": [ -1.551878225549446, 49.653252262949259 ] } },
{ "type": "Feature", "properties": { "id": 7, "name": "243rd Static Infantry Division", "country": "GE", "front": 1 }, "geometry": { "type": "Point", "coordinates": [ -1.638902431584912, 49.657943048490061 ] } },
{ "type": "Feature", "properties": { "id": 26, "name": "91st Infantry Division", "country": "GE", "front": 1 }, "geometry": { "type": "Point", "coordinates": [ -1.592140926882595, 49.315446775457083 ] } },
{ "type": "Feature", "properties": { "id": 33, "name": "716th Static Infantry Division", "country": "GE", "front": 1 }, "geometry": { "type": "Point", "coordinates": [ -0.38396109133099, 49.117051734764303 ] } },
{ "type": "Feature", "properties": { "id": 45, "name": "3rd Parachute Division", "country": "GE", "front": 1 }, "geometry": { "type": "Point", "coordinates": [ -0.906554520879589, 49.064808012668379 ] } },
{ "type": "Feature", "properties": { "id": 34, "name": "12th Panzer Division", "country": "GE", "front": 1 }, "geometry": { "type": "Point", "coordinates": [ -0.58168905131028, 49.145498487934418 ] } },
{ "type": "Feature", "properties": { "id": 46, "name": "2nd Panzer Division", "country": "GE", "front": null }, "geometry": { "type": "Point", "coordinates": [ -0.74483142554329, 49.058249206914923 ] } },
{ "type": "Feature", "properties": { "id": 47, "name": "77th Infantry Division", "country": "GE", "front": null }, "geometry": { "type": "Point", "coordinates": [ -1.532232417663326, 49.336381500325153 ] } },
{ "type": "Feature", "properties": { "id": 49, "name": "XIX Corps", "country": "US", "front": null }, "geometry": { "type": "Point", "coordinates": [ -1.026222141539517, 49.284661441892915 ] } },
{ "type": "Feature", "properties": { "id": 48, "name": "30th Infantry DivisionL", "country": "US", "front": 1 }, "geometry": { "type": "Point", "coordinates": [ -1.073880032913441, 49.254929509862897 ] } },
{ "type": "Feature", "properties": { "id": 50, "name": "11th Armoured Division", "country": "UK", "front": null }, "geometry": { "type": "Point", "coordinates": [ -0.514833545386042, 49.246542841251937 ] } },
{ "type": "Feature", "properties": { "id": 52, "name": "79th Infantry Division", "country": "US", "front": 1 }, "geometry": { "type": "Point", "coordinates": [ -1.614102400337036, 49.603947510068203 ] } },
{ "type": "Feature", "properties": { "id": 89, "name": "265th Infantry Division", "country": "GE", "front": 1 }, "geometry": { "type": "Point", "coordinates": [ -1.456935937248091, 49.302102330835083 ] } },
{ "type": "Feature", "properties": { "id": 90, "name": "275th Infantry Division", "country": "GE", "front": 1 }, "geometry": { "type": "Point", "coordinates": [ -1.162472915624228, 49.222252475281678 ] } },
{ "type": "Feature", "properties": { "id": 91, "name": "VIII Corps", "country": "UK", "front": null }, "geometry": { "type": "Point", "coordinates": [ -0.52671066878487, 49.267311868552696 ] } },
{ "type": "Feature", "properties": { "id": 92, "name": "VIII Corps", "country": "US", "front": null }, "geometry": { "type": "Point", "coordinates": [ -1.271085100667629, 49.374527951922232 ] } },
{ "type": "Feature", "properties": { "id": 93, "name": "319th Static Infantry Division", "country": "GE", "front": 1 }, "geometry": { "type": "Point", "coordinates": [ -1.332188792115708, 49.638983693391708 ] } },
{ "type": "Feature", "properties": { "id": 96, "name": "2nd SS Panzer Division Das Reich", "country": "GE", "front": 0 }, "geometry": { "type": "Point", "coordinates": [ -1.031152268233367, 49.030144228392487 ] } },
{ "type": "Feature", "properties": { "id": 87, "name": "245th Infantry Division", "country": "GE", "front": null }, "geometry": { "type": "Point", "coordinates": [ -1.3042514075172, 49.047185379449779 ] } },
{ "type": "Feature", "properties": { "id": 98, "name": "353rd Infantry Division", "country": "GE", "front": 1 }, "geometry": { "type": "Point", "coordinates": [ -1.43803711825498, 49.228301795673701 ] } },
{ "type": "Feature", "properties": { "id": 99, "name": "XII Corps", "country": "UK", "front": 0 }, "geometry": { "type": "Point", "coordinates": [ -0.654669866157193, 49.270333862327561 ] } },
{ "type": "Feature", "properties": { "id": 35, "name": "LXXXIV Army Corps", "country": "GE", "front": 0 }, "geometry": { "type": "Point", "coordinates": [ -1.34653097886147, 49.137484216054986 ] } },
{ "type": "Feature", "properties": { "id": 101, "name": "II Parachute Corps", "country": "GE", "front": 0 }, "geometry": { "type": "Point", "coordinates": [ -1.115113819807503, 48.979476013684561 ] } },
{ "type": "Feature", "properties": { "id": 94, "name": "XLVII Panzer Corps", "country": "GE", "front": 0 }, "geometry": { "type": "Point", "coordinates": [ -0.617544518174677, 48.865603399407227 ] } },
{ "type": "Feature", "properties": { "id": 102, "name": "First Canadian Army", "country": "CA", "front": 0 }, "geometry": { "type": "Point", "coordinates": [ -0.46993951291624, 49.286805347447135 ] } },
{ "type": "Feature", "properties": { "id": 100, "name": "43rd (Wessex) Infantry Division", "country": "UK", "front": 0 }, "geometry": { "type": "Point", "coordinates": [ -0.611045714805505, 49.354290661854812 ] } },
{ "type": "Feature", "properties": { "id": 103, "name": "Guards Armoured Division", "country": "UK", "front": 0 }, "geometry": { "type": "Point", "coordinates": [ -0.664828915102102, 49.370247681321047 ] } },
{ "type": "Feature", "properties": { "id": 104, "name": "3rd Armored Division", "country": "US", "front": 0 }, "geometry": { "type": "Point", "coordinates": [ -1.056251095038445, 49.414977546748482 ] } },
{ "type": "Feature", "properties": { "id": 51, "name": "15th (Scottish) Infantry Division", "country": "UK", "front": 0 }, "geometry": { "type": "Point", "coordinates": [ -0.555469741165689, 49.356626158876026 ] } },
{ "type": "Feature", "properties": { "id": 95, "name": "I SS Panzer Corps", "country": "GE", "front": 0 }, "geometry": { "type": "Point", "coordinates": [ -0.366556250123892, 48.96456955532129 ] } },
{ "type": "Feature", "properties": { "id": 105, "name": "1st SS Panzer Division Leibstandarte SS Adolf Hitler", "country": "GE", "front": 0 }, "geometry": { "type": "Point", "coordinates": [ -0.455380083454936, 48.993187736010299 ] } },
{ "type": "Feature", "properties": { "id": 106, "name": "83rd Infantry Division", "country": "US", "front": 0 }, "geometry": { "type": "Point", "coordinates": [ -1.132992104677651, 49.474230361336076 ] } }
]
}
