{
"type": "FeatureCollection",
"name": "10-06-44-troops",
"crs": { "type": "name", "properties": { "name": "urn:ogc:def:crs:OGC:1.3:CRS84" } },
"features": [
{ "type": "Feature", "properties": { "id": null, "name": "82nd Airborne Division", "country": "US" }, "geometry": { "type": "Point", "coordinates": [ -1.339554210810432, 49.382166746078404 ] } },
{ "type": "Feature", "properties": { "id": null, "name": "101st Airborne Division", "country": "US" }, "geometry": { "type": "Point", "coordinates": [ -1.23328473765514, 49.370151571112316 ] } },
{ "type": "Feature", "properties": { "id": null, "name": "29th Infantry Division", "country": "US" }, "geometry": { "type": "Point", "coordinates": [ -0.985516819910395, 49.373983182677726 ] } },
{ "type": "Feature", "properties": { "id": null, "name": "4th Infantry Division", "country": "US" }, "geometry": { "type": "Point", "coordinates": [ -1.270532348678602, 49.418627414498914 ] } },
{ "type": "Feature", "properties": { "id": null, "name": "2nd Armored Division", "country": "US" }, "geometry": { "type": "Point", "coordinates": [ -0.90665984756514, 49.377565069497798 ] } },
{ "type": "Feature", "properties": { "id": null, "name": "7th Armoured Division", "country": "UK" }, "geometry": { "type": "Point", "coordinates": [ -0.621135871069228, 49.326521959032881 ] } },
{ "type": "Feature", "properties": { "id": null, "name": "50th Infantry Division", "country": "UK" }, "geometry": { "type": "Point", "coordinates": [ -0.655550315115004, 49.28257391802434 ] } },
{ "type": "Feature", "properties": { "id": null, "name": "50th Infantry Division", "country": "UK" }, "geometry": { "type": "Point", "coordinates": [ -0.68513505888068, 49.344668096028386 ] } },
{ "type": "Feature", "properties": { "id": null, "name": "21st Army Group", "country": "UK" }, "geometry": { "type": "Point", "coordinates": [ -0.526759092019103, 49.296059713514119 ] } },
{ "type": "Feature", "properties": { "id": null, "name": "1st Army Group", "country": "US" }, "geometry": { "type": "Point", "coordinates": [ -1.187048984836064, 49.41634841908499 ] } },
{ "type": "Feature", "properties": { "id": null, "name": "VII Corps", "country": "US" }, "geometry": { "type": "Point", "coordinates": [ -1.199383338327558, 49.42341556844201 ] } },
{ "type": "Feature", "properties": { "id": null, "name": "4th Infantry Division", "country": "US" }, "geometry": { "type": "Point", "coordinates": [ -1.325497046762255, 49.468868986293309 ] } },
{ "type": "Feature", "properties": { "id": null, "name": "90th Infantry Division", "country": "US" }, "geometry": { "type": "Point", "coordinates": [ -1.330943508054702, 49.357611132086703 ] } },
{ "type": "Feature", "properties": { "id": null, "name": "101st Airborne Division", "country": "US" }, "geometry": { "type": "Point", "coordinates": [ -1.232582262784941, 49.340366019651945 ] } },
{ "type": "Feature", "properties": { "id": null, "name": "50th Infantry Division", "country": "UK" }, "geometry": { "type": "Point", "coordinates": [ -0.697667471861502, 49.262811852667014 ] } },
{ "type": "Feature", "properties": { "id": null, "name": "709th Static Infantry Division", "country": "GE" }, "geometry": { "type": "Point", "coordinates": [ -1.382898439224251, 49.510366208259995 ] } },
{ "type": "Feature", "properties": { "id": null, "name": "243rd Static Infantry Division", "country": "GE" }, "geometry": { "type": "Point", "coordinates": [ -1.440886469077265, 49.430813566374091 ] } },
{ "type": "Feature", "properties": { "id": null, "name": "91st Infantry Division", "country": "GE" }, "geometry": { "type": "Point", "coordinates": [ -1.440170567474141, 49.376774473799237 ] } },
{ "type": "Feature", "properties": { "id": null, "name": "9th Infantry Division", "country": "US" }, "geometry": { "type": "Point", "coordinates": [ -1.236767195737863, 49.46968563706622 ] } },
{ "type": "Feature", "properties": { "id": null, "name": "90th Infantry Division", "country": "US" }, "geometry": { "type": "Point", "coordinates": [ -1.252431202365611, 49.421461379596202 ] } },
{ "type": "Feature", "properties": { "id": null, "name": "711th Infantry Division", "country": "GE" }, "geometry": { "type": "Point", "coordinates": [ -0.191054700556596, 49.239811548020157 ] } },
{ "type": "Feature", "properties": { "id": null, "name": "346th Infantry Division", "country": "GE" }, "geometry": { "type": "Point", "coordinates": [ -0.211334142248822, 49.208686958747144 ] } },
{ "type": "Feature", "properties": { "id": null, "name": "4th Parachute Division", "country": "GE" }, "geometry": { "type": "Point", "coordinates": [ -1.260690606123372, 49.237455369231952 ] } },
{ "type": "Feature", "properties": { "id": null, "name": "6th Parachute Division", "country": "GE" }, "geometry": { "type": "Point", "coordinates": [ -1.214776505946527, 49.273877328387911 ] } },
{ "type": "Feature", "properties": { "id": null, "name": "352nd Infantry Division", "country": "GE" }, "geometry": { "type": "Point", "coordinates": [ -0.93289606543038, 49.267026085160268 ] } },
{ "type": "Feature", "properties": { "id": null, "name": "716th Static Infantry Division", "country": "GE" }, "geometry": { "type": "Point", "coordinates": [ -0.502140230163643, 49.159025052183573 ] } },
{ "type": "Feature", "properties": { "id": null, "name": "21st Panzer Division", "country": "GE" }, "geometry": { "type": "Point", "coordinates": [ -0.370571877670203, 49.193014391441061 ] } },
{ "type": "Feature", "properties": { "id": null, "name": "51st (Highland) Division", "country": "UK" }, "geometry": { "type": "Point", "coordinates": [ -0.494415797101527, 49.226608567816896 ] } },
{ "type": "Feature", "properties": { "id": null, "name": "7th Armoured Division", "country": "UK" }, "geometry": { "type": "Point", "coordinates": [ -0.572487603271711, 49.223105569808801 ] } },
{ "type": "Feature", "properties": { "id": null, "name": "3rd Infantry Division", "country": "UK" }, "geometry": { "type": "Point", "coordinates": [ -0.355839007151353, 49.226659908628086 ] } },
{ "type": "Feature", "properties": { "id": null, "name": "Second Army", "country": "UK" }, "geometry": { "type": "Point", "coordinates": [ -0.479805080193629, 49.318224101444478 ] } },
{ "type": "Feature", "properties": { "id": null, "name": "51st (Highland) Division", "country": "UK" }, "geometry": { "type": "Point", "coordinates": [ -0.510985911291438, 49.283658714364066 ] } },
{ "type": "Feature", "properties": { "id": null, "name": "I Corps", "country": "UK" }, "geometry": { "type": "Point", "coordinates": [ -0.422120542662682, 49.320764717187757 ] } },
{ "type": "Feature", "properties": { "id": null, "name": "3rd Infantry Division", "country": "UK" }, "geometry": { "type": "Point", "coordinates": [ -0.326481187488762, 49.252354504739472 ] } },
{ "type": "Feature", "properties": { "id": null, "name": "49th (West Riding) Infantry Division", "country": "UK" }, "geometry": { "type": "Point", "coordinates": [ -0.664202914447231, 49.367346886085869 ] } },
{ "type": "Feature", "properties": { "id": null, "name": "2nd Infantry Division", "country": "US" }, "geometry": { "type": "Point", "coordinates": [ -0.86849206833562, 49.350383387979988 ] } },
{ "type": "Feature", "properties": { "id": null, "name": "1st Infantry Division", "country": "US" }, "geometry": { "type": "Point", "coordinates": [ -0.836165065757656, 49.347859393588436 ] } },
{ "type": "Feature", "properties": { "id": null, "name": "V Corps", "country": "US" }, "geometry": { "type": "Point", "coordinates": [ -0.835599589104671, 49.351051987671596 ] } },
{ "type": "Feature", "properties": { "id": null, "name": "6th Airborne Division", "country": "UK" }, "geometry": { "type": "Point", "coordinates": [ -0.297133558257338, 49.20861605525586 ] } },
{ "type": "Feature", "properties": { "id": null, "name": "2nd Ranger Battalion", "country": "US" }, "geometry": { "type": "Point", "coordinates": [ -1.018790829969523, 49.39517684314481 ] } },
{ "type": "Feature", "properties": { "id": null, "name": "5th Ranger Battalion", "country": "US" }, "geometry": { "type": "Point", "coordinates": [ -0.965346288705016, 49.374236635877992 ] } },
{ "type": "Feature", "properties": { "id": null, "name": "XXX Corps", "country": "UK" }, "geometry": { "type": "Point", "coordinates": [ -0.620199605236821, 49.328540300679457 ] } },
{ "type": "Feature", "properties": { "id": null, "name": "3rd Infantry Division", "country": "CA" }, "geometry": { "type": "Point", "coordinates": [ -0.425879910632851, 49.226704370357737 ] } },
{ "type": "Feature", "properties": { "id": null, "name": "3rd Infantry Division", "country": "CA" }, "geometry": { "type": "Point", "coordinates": [ -0.445797055202167, 49.2854262989554 ] } },
{ "type": "Feature", "properties": { "id": null, "name": "LXXXIV Army Corps", "country": "GE" }, "geometry": { "type": "Point", "coordinates": [ -1.090226275537946, 49.114958283582411 ] } },
{ "type": "Feature", "properties": { "id": null, "name": "245th Infantry Division", "country": "GE" }, "geometry": { "type": "Point", "coordinates": [ -1.234687296897568, 49.120162928867352 ] } },
{ "type": "Feature", "properties": { "id": null, "name": "Panzer Lehr Division", "country": "GE" }, "geometry": { "type": "Point", "coordinates": [ -0.698635887953405, 49.199413103253242 ] } }
]
}
